SID,Nombre,Código,Organización,Latitud,Longitud,Altura,Medida,Valor,Confianza
716,"Los Maquis","AG67","agromet",-34.499722222,-70.839722222,471.0,"Temperatura",25.26,100
499,"Paillaco Norte","AG134","agromet",-40.045833333,-72.901388889,72.0,"Temperatura",,0
796,"San Fabián","AG321","agromet",-38.446389,-72.849444,195.0,"Temperatura",18.98,100
1129,"Andacollo [Collowara]","CEAZA_ANDA_Andacollo [Collowara]","ceaza",-30.24875,-71.06526,1281.0,"Temperatura",22.61,100
611,"Colliguay","AG499","agromet",-33.1686089,-71.1557171,508.0,"Temperatura",23.4,100
522,"Caleta Toro","AG359","agromet",-30.74043,-71.7004,18.0,"Temperatura",,0
617,"Santa María","AG28","agromet",-32.749166667,-70.660277778,708.0,"Temperatura",26.32,100
803,"Isla Riesco / Río Verde","AG270","agromet",-53.030495,-71.933637,70.0,"Temperatura",10.3,100
84,"Grande en Las Ramadas","04511002-8","dga",-31.0117,-70.5811,1380.0,"Temperatura",,0
1245,"RIO MURTA EN DESEMBOCADURA","11514001-9","dga",-46.4333,-72.7,219.0,"Temperatura",,0
476,"Juan Kalt Bode (Fundación Adolfo Matthei)","400013","dmc",-40.5867,-73.1044,53.0,"Temperatura",,0
843,"Longaví Norte","AG100","agromet",-36.053611111,-71.683333333,174.0,"Temperatura",21.38,100
334,"Puerto Montt","10425001-7","dga",-41.46,-72.9378,90.0,"Temperatura",,0
304,"Pueblo Nuevo","09129005-7","dga",-38.7128,-72.5558,119.0,"Temperatura",,0
185,"Curico","07118003-4","dga",-34.9811,-71.2361,195.0,"Temperatura",,0
1317,"Santa Lucía","AG673","agromet",-36.69746,-72.704216,281.0,"Temperatura",23.65,100
588,"Manuel Montt","AG276","agromet",-32.322861,-71.06105583,322.0,"Temperatura",21.03,100
1306,"Río Claro en Tunca","06015001-K","dga",-34.385555555555555,-71.10166666666666,480.0,"Temperatura",,0
284,"Cn Zañartu dp. B Laja","08375004-9","dga",-37.3036,-71.6378,490.0,"Temperatura",,0
1246,"LAGO GENERAL CARRERA EN DESAGÜE","11517002-3","dga",-46.8456,-72.8033,210.0,"Temperatura",,0
758,"Pica","AG551","agromet",-20.501476,-69.342572,1292.0,"Temperatura",24.41,100
893,"Río Hurtado en Angostura de Pangue","04503001-6","dga",-30.4386,-71.0022,485.0,"Temperatura",,0
1397,"Los Corrales","CEAZA_CORR_Los Corrales","ceaza",-30.161408,-69.87599399999999,3982.0,"Temperatura",,0
742,"Tierras Nobles","AG120","agromet",-37.441944444,-72.617777778,92.0,"Temperatura",23.78,100
894,"Embalse Recoleta","04506010-1","dga",-30.492222222222225,-71.09055555555555,0.0,"Temperatura",,0
324,"Río Nilahue en Mayay","10306001-K","dga",-40.2667,-72.2333,80.0,"Temperatura",,0
925,"Aguas Andínas, La Florida","330122","dmc",-33.544999999999995,-70.54833333333333,670.0,"Temperatura",25.6,100
739,"Human","AG173","agromet",-37.433556,-72.243975,193.0,"Temperatura",22.39,100
1161,"Canal Lauca en Chucuyo Km 0","01020020-2","dga",-18.21638888888889,-75.31777777777778,4397.0,"Temperatura",,0
1104,"Radal","AG640","agromet",-38.98547,-72.381617,164.0,"Temperatura",18.01,100
1348,"Los Andes","yy:00:00:00:00:38","redmeteo",-32.846,-70.59,830.0,"Temperatura",28.33,100
631,"Curacaví","AG52","agromet",-33.438611111,-71.025555556,195.0,"Temperatura",22.99,100
1351,"Santo Tomas","wl:1d:0a:01:20:7f","redmeteo",-30.68677,-71.27687,250.2,"Temperatura",,0
870,"Miraflores","AG292","agromet",-35.918056,-71.613306,165.0,"Temperatura",20.52,100
13,"San José Ausipar","01310002-0","dga",-18.5844,-69.8114,1300.0,"Temperatura",,0
43,"Captacion de Sqm Coya Sur","02112013-8","dga",-22.3970839723903,-69.529805030125,0.0,"Temperatura",,0
221,"Parral","07345001-2","dga",-36.1878,-71.8283,175.0,"Temperatura",,0
1455,"Escudero","950016","dmc",-62.20278,-58.96167,1.0,"Temperatura",,0
1268,"Liceo Samuel Román Rojas (Combarbalá)","310024","dmc",-31.18805,-70.99972,936.0,"Temperatura",24.7,100
1467,"Montes - Apalta","AG754","agromet",-34.61104,-71.27045,190.0,"Temperatura",25.69,100
1260,"Paso Agua Negra","CEAZA_PAGN_Paso Agua Negra","ceaza",-30.1907,-69.82553,4774.0,"Temperatura",4.06,100
72,"Río Conay en las Lozas","03802001-3","dga",-28.9486,-70.1033,1570.0,"Temperatura",,0
815,"Lluta Alto","AG147","agromet",-18.393556,-69.963339,897.0,"Temperatura",20.17,100
812,"Ticnamar","AG391","agromet",-18.58007,-69.495965,3210.0,"Temperatura",15.82,100
1136,"Las Cardas","CEAZA_LCAR_Las Cardas","ceaza",-30.25145,-71.2569,282.0,"Temperatura",18.38,100
1262,"Río Colpitas en Alcerreca","01201001-K","dga",-17.9919,-69.6256,3251.0,"Temperatura",,0
22,"Captacion de Aguas Antofagasta en Quinchamale","02102007-9","dga",-21.9229317009875,-68.5986520022656,0.0,"Temperatura",,0
332,"Estacion Meteorologica Cascada","10410015-5","dga",-41.0781,-72.6328,75.0,"Temperatura",,0
1399,"El Guindo","AG280","agromet",-32.35716683,-71.345472,21.0,"Temperatura",17.21,100
374,"Candelario Mancilla","11704001-1","dga",-48.8775,-72.7394,300.0,"Temperatura",,0
69,"Lautaro Embalse","03430006-2","dga",-27.9783,-70.0033,1110.0,"Temperatura",,0
885,"Odjfell","AG244","agromet",-36.144722222,-72.265833333,160.0,"Temperatura",,0
91,"Choapa en Cuncumén","04703002-1","dga",-31.9667,-70.5944,1200.0,"Temperatura",,0
1131,"Cachiyuyo","CEAZA_CACH_Cachiyuyo","ceaza",-29.0572,-70.90517,950.0,"Temperatura",25.34,100
1273,"Eulogio Sánchez, Tobalaba Ad.","330019","dmc",-33.45528,-70.54861,650.0,"Temperatura",26.16,100
278,"Alto Mallines","08372001-8","dga",-37.15888888888889,-71.2425,1770.0,"Temperatura",,0
92,"Cuncumén Junta Choapa","04704001-9","dga",-31.8167,-70.6,1030.0,"Temperatura",,0
833,"Iglesia Colorada","AG608","agromet",-28.1489444,-69.89183333,1513.0,"Temperatura",25.35,100
956,"Maquehue-UFRO","380033","dmc",-38.83777777777778,-72.69444444444444,74.0,"Temperatura",17.98,100
786,"Pucon","AG130","agromet",-39.355833333,-71.781388889,433.0,"Temperatura",,0
437,"Puerto Toro","12930005-1","dga",-55.0822,-67.0758,10.0,"Temperatura",,0
115,"Aconcagua Romeral","05423003-6","dga",-32.8403,-71.0256,365.0,"Temperatura",,0
765,"Cuarta Faja","AG184","agromet",-39.115555833,-72.605277833,115.0,"Temperatura",18.98,100
119,"Cerro Colorado Armada de Chile","05510005-5","dga",-33.0819,-71.6169,510.0,"Temperatura",,0
44,"Tocopilla","02210002-5","dga",-22.0797,-70.1897,150.0,"Temperatura",,0
497,"Palermo","AG286","agromet",-40.3,-73.1,52.0,"Temperatura",20.13,100
677,"Punta Cortes","AG65","agromet",-34.16975,-70.791277778,476.0,"Temperatura",25.8,100
1326,"Dalcahue","yy:00:00:00:00:04","redmeteo",-42.379,-73.647,15.0,"Temperatura",19.93,100
232,"Loncomilla Brisas","07359001-9","dga",-35.6169,-71.7678,68.0,"Temperatura",,0
1328,"Chiguayante ELIMINADO  DELA RED","yy:00:00:00:00:06","redmeteo",-36.922,-73.035,35.0,"Temperatura",,0
338,"Llanada Grande","10512000-1","dga",-41.4242,-71.9386,248.0,"Temperatura",,0
1148,"Tascadero","CEAZA_TASC_Tascadero","ceaza",-31.26295,-70.53999,3427.0,"Temperatura",12.13,100
855,"Campanacura","AG403","agromet",-35.9738889,-72.0276389,132.0,"Temperatura",25.07,100
142,"Terraza Oficinas Centrales DGA","05730016-7","dga",-33.4486,-70.6444,560.0,"Temperatura",,0
101,"Estero Pupio antes Quebrada Llau-llau","04810005-8","dga",-31.9456,-71.0606,690.0,"Temperatura",,0
164,"San Fernando","06016004-K","dga",-34.5983,-70.9686,350.0,"Temperatura",,0
432,"Bahia Yendegaia","12878002-5","dga",-54.8817,-68.6825,10.0,"Temperatura",,0
544,"Las Cañas 2","AG366","agromet",-31.7358,-71.21935,362.0,"Temperatura",,0
908,"Bajada Ibañez","AG621","agromet",-46.180619,-72.043261,523.0,"Temperatura",15.3,100
386,"Lago Pehoe","12283003-9","dga",-51.0783,-72.9933,40.0,"Temperatura",,0
1156,"Corral ESSAL","390043","dmc",-39.88806,-73.44056,13.0,"Temperatura",17.98,100
1253,"RIO TALCAHUANO EN PENINSULA ANTONIO VARAS","12271000-9","dga",-51.7464,-72.8997,11.0,"Temperatura",,0
392,"Torres Del Paine","12286001-9","dga",-51.1842,-72.9669,25.0,"Temperatura",,0
385,"Cerro Guido","12283001-2","dga",-50.8986,-72.3314,230.0,"Temperatura",,0
767,"El Quincho","AG189","agromet",-38.913175,-72.183514,289.0,"Temperatura",18.39,100
102,"Río Sobrante en Piñadero","05100001-3","dga",-32.2253,-70.7119,1300.0,"Temperatura",,0
1206,"TERMAS DEL PLOMO","05703014-3","dga",-33.61333333333334,-69.90583333333333,3000.0,"Temperatura",,0
415,"Bitsch Alto","12587000-7","dga",-53.0919,-71.0025,328.0,"Temperatura",,0
788,"Pocoyan","AG187","agromet",-39.035555833,-73.058610833,37.0,"Temperatura",,0
494,"Río Bueno","AG135","agromet",-40.322777778,-72.979444444,40.0,"Temperatura",19.82,100
936,"Río Grande en Cuyano","04513001-0","dga",-30.9242,-70.7731,870.0,"Temperatura",,0
55,"Toconao Pueblo","02500027-7","dga",-23.1819,-68.0039,2698.0,"Temperatura",,0
580,"Luis Felipe Edwards-Leyda","AG214","agromet",-33.669,-71.536,135.0,"Temperatura",,0
406,"Río San Juan en Desembocadura","12582001-8","dga",-53.65,-70.9667,8.0,"Temperatura",,0
680,"Puente Negro","AG483","agromet",-34.386351,-71.98571,10.0,"Temperatura",18.46,100
186,"Lontue","07119007-2","dga",-35.0422,-71.2906,199.0,"Temperatura",,0
131,"Río Colorado antes Junta Río Maipo","05707002-1","dga",-33.5875,-70.3669,890.0,"Temperatura",,0
132,"Maipo en El Manzano","05710001-K","dga",-33.5939,-70.3792,850.0,"Temperatura",,0
1275,"Casa del Canto","CEAZA_CDC_Casa del Canto","ceaza",-31.417340000000003,-70.589,3570.0,"Temperatura",11.57,100
878,"Lomas","AG503","agromet",-35.8354491,-72.587489,176.0,"Temperatura",20.67,100
298,"Río Puren en Tranaman","09101001-1","dga",-38.036599724866,-73.019219101224,90.0,"Temperatura",,0
1196,"RIO PETORCA EN PEÑON O HIERRO VIEJO","05110002-6","dga",-32.2786,-70.9889,423.0,"Temperatura",,0
154,"Cortaderal Cachapoal","06002001-9","dga",-34.3669,-70.3258,1200.0,"Temperatura",,0
170,"Tinguiririca Los Briones","06028001-0","dga",-34.7186,-70.8267,560.0,"Temperatura",,0
139,"Estero Arrayán Montosa","05722001-5","dga",-33.3256,-70.4561,880.0,"Temperatura",,0
1172,"HUARA EN FUERTE BAQUEDANO","01700010-1","dga",-20.1308,-69.7497,1100.0,"Temperatura",,0
197,"Canal Ad. Maule C. Pehuenche","07308000-2","dga",-35.7961,-70.9953,690.0,"Temperatura",,0
1126,"La Serena [Cerro Grande]","CEAZA_CGR_La Serena [Cerro Grande]","ceaza",-29.93848,-71.22351,513.0,"Temperatura",14.08,100
727,"Ponotro","AG369","agromet",-38.27529,-73.498489,149.0,"Temperatura",16.33,100
623,"El Claro","AG265","agromet",-45.9812,-72.092267,1253.0,"Temperatura",16.62,100
376,"Pascua ante Jta. Quetru","11711000-1","dga",-48.1592,-73.0889,20.0,"Temperatura",,0
1466,"Santa Carolina - Totihue","AG758","agromet",-34.33721,-70.80092,362.0,"Temperatura",24.89,100
871,"Santa Amada","AG311","agromet",-35.761,-71.48,180.0,"Temperatura",21.54,100
1336,"Loncotoro, Llanquihue","zx:00:00:00:00:25","redmeteo",-41.299062,-73.20568,113.0,"Temperatura",18.18,100
396,"Glaciar Tindall","12288000-1","dga",-51.1158,-73.2825,345.0,"Temperatura",,0
229,"Achibueno Recova","07354002-K","dga",-36.0028,-71.4419,322.0,"Temperatura",,0
714,"Marchigue","AG81","agromet",-34.405555556,-71.607222222,137.0,"Temperatura",24.6,100
289,"Río Laja en Tucapel 2","08380006-2","dga",-37.2792,-71.9847,0.0,"Temperatura",,0
1175,"PARCA","01740001-0","dga",-20.0122,-69.2033,2650.0,"Temperatura",,0
909,"Putre","180017","dmc",-18.2,-69.5625,3532.0,"Temperatura",12.31,100
1421,"Emiliana - Casablanca","AG721","agromet",-33.3653188,-71.3067019,312.0,"Temperatura",20.25,100
719,"Coihueco","AG107","agromet",-36.557222222,-71.817222222,222.0,"Temperatura",20.84,100
440,"La Huayca, Pozo Almonte","200007","dmc",-20.4269,-69.6417,994.0,"Temperatura",,0
891,"Sagrada Familia","AG90","agromet",-34.996944444,-71.374166667,158.0,"Temperatura",25.47,100
1320,"Ñirehuao","AG682","agromet",-45.249744,-71.69425,508.0,"Temperatura",15.76,100
1261,"Chucuyo Reten","01020016-4","dga",-18.2164,-69.2956,4400.0,"Temperatura",,0
1142,"Quebrada Seca","CEAZA_QS_Quebrada Seca","ceaza",-30.496129999999997,-71.49051,183.0,"Temperatura",18.61,100
1458,"Santa Julia, Viña del Mar","yy:00:00:00:00:6c","redmeteo",-33.005,-71.499,215.0,"Temperatura",15.92,100
302,"Cautín en Rariruca","09123001-1","dga",-38.4303,-72.0106,425.0,"Temperatura",,0
343,"Chaitén Meteorológica","10683003-7","dga",-42.919999999999995,-72.71027777777778,526.0,"Temperatura",,0
567,"Tara","AG204","agromet",-42.703730833,-73.788516833,147.0,"Temperatura",18.04,100
188,"Río Mataquito en Licanten","07123001-5","dga",-34.9844,-72.01,20.0,"Temperatura",,0
679,"Chimbarongo","AG60","agromet",-34.670833333,-71.031666667,330.0,"Temperatura",23.6,100
36,"Río Loa en Escorial","02110001-3","dga",-22.4419,-68.8886,2450.0,"Temperatura",,0
45,"Quebrada Barriles","02210003-3","dga",-22.08,-70.1833,107.0,"Temperatura",,0
181,"Pichilemu","06120001-0","dga",-34.3844,-72.0044,5.0,"Temperatura",,0
743,"Yungay","AG180","agromet",-37.141384833,-72.011761,263.0,"Temperatura",22.93,100
187,"Laguna de Torca","07120002-7","dga",-34.7675,-72.065,28.0,"Temperatura",,0
168,"Glaciar Universidad en Río San Andres","06023000-5","dga",-34.72027777777778,-70.35916666666667,2429.0,"Temperatura",,0
1128,"Vicuña","CEAZA_6_Vicuña","ceaza",-30.038320000000002,-70.69655,634.0,"Temperatura",21.91,100
1289,"Los Guindos","05747001-1","dga",-33.89083333333333,-71.23361111111112,125.0,"Temperatura",,0
1158,"Tilama","CEAZA_TIL_Tilama","ceaza",-32.08163,-71.16277,499.0,"Temperatura",19.71,100
691,"Casa Silva-Los Lingues","AG229","agromet",-34.502222222,-70.894722222,320.0,"Temperatura",25.47,100
609,"Putaendo","AG27","agromet",-32.593694444,-70.726111111,872.0,"Temperatura",25.94,100
780,"Surco y semilla","AG319","agromet",-38.0325,-72.285278,375.0,"Temperatura",20.56,100
560,"Osorno","AG137","agromet",-40.533333333,-73.0725,75.0,"Temperatura",18.98,100
549,"Punta Lengua de Vaca","AG362","agromet",-30.24419,-71.62657,30.0,"Temperatura",,0
689,"SAN FERNANDO","AG58","agromet",-34.577833333,-70.975527778,339.0,"Temperatura",24.44,100
733,"Negrete","AG117","agromet",-37.595277778,-72.466666667,93.0,"Temperatura",23.54,100
725,"Ñiquén","AG106","agromet",-36.293611111,-71.893611111,164.0,"Temperatura",24.46,100
267,"Río Biobio en Longitudinal","08319001-9","dga",-37.6019,-72.2783,138.0,"Temperatura",,0
73,"Ne-5 Río Estrecho en Nacimiento","03803003-5","dga",-29.298055555555557,-70.04944444444445,0.0,"Temperatura",,0
827,"Visviri tenencia","AG296","agromet",-17.595,-69.4775,4077.0,"Temperatura",,0
395,"Lago Grey","12287002-2","dga",-51.1114,-73.13,50.0,"Temperatura",,0
450,"Quinta Normal, Santiago","330020","dmc",-33.445,-70.6828,534.0,"Temperatura",25.33,100
1406,"Amalfi","AG706","agromet",-27.411203,-70.302629,421.0,"Temperatura",21.03,100
1459,"Los Ángeles Oriente","yy:00:00:00:00:6d","redmeteo",-37.47722,-72.33516,146.0,"Temperatura",23.17,100
825,"Putre","AG282","agromet",-18.2,-69.6,3426.0,"Temperatura",12.51,100
729,"Puraligue","AG507","agromet",-36.431036,-72.647783,30.0,"Temperatura",21.39,100
265,"Río Biobio en Puente Piulo","08317005-0","dga",-37.7092,-71.8236,291.0,"Temperatura",,0
56,"Sierra Gorda","02700001-0","dga",-22.8892,-69.3219,1616.0,"Temperatura",,0
682,"Graneros Norte","AG62","agromet",-34.061944444,-70.705,494.0,"Temperatura",24.15,100
955,"Pichilemu aeródromo","340115","dmc",-34.39416666666666,-72.01861111111111,25.0,"Temperatura",17.67,100
568,"Carelmapu","AG527","agromet",-41.709733,-73.6722625,31.0,"Temperatura",17.44,100
1435,"Isla Mocha Ad.","380082","dmc",-38.38389,-73.86917,16.0,"Temperatura",,0
328,"Río Rahue antes Junta Río Negro","10344003-3","dga",-40.63,-73.1783,40.0,"Temperatura",,0
862,"Morza Norte Ex Peteroa ","AG86","agromet",-34.835,-71.024166667,305.0,"Temperatura",22.22,100
615,"Calle Larga","AG24","agromet",-32.870555556,-70.646111111,772.0,"Temperatura",26.64,100
314,"Río Voipir en Puente Voipir","09421002-K","dga",-39.34,-72.2238888888889,0.0,"Temperatura",,0
447,"Los Libertadores","320051","dmc",-32.8456,-70.1192,2955.0,"Temperatura",15.71,100
482,"Punta Arenas Unidad Aeropolicial","520014","dmc",-53.1528,-70.9264,53.0,"Temperatura",10.77,100
821,"Codpa","AG263","agromet",-18.833055556,-69.744444444,1859.0,"Temperatura",20.83,100
1379,"Buin Oriente","yy:00:00:00:00:56","redmeteo",-33.732831,-70.721616,510.0,"Temperatura",25.09,100
488,"Rucatayo","AG376","agromet",-40.598896,-72.586541,279.0,"Temperatura",18.82,100
901,"Vicuña","AG11","agromet",-30.038333333,-70.696666667,630.0,"Temperatura",22.74,100
953,"Quintero, Climatológica","320056","dmc",-32.784166666666664,-71.52277777777778,5.0,"Temperatura",17.57,100
290,"Río Laja Ag.arr. Del Salto","08381003-3","dga",-37.2119,-72.3242,140.0,"Temperatura",,0
449,"Rodelillo, Ad.","330007","dmc",-33.0367,-71.5342,330.0,"Temperatura",16.71,100
344,"Rio Futaleufu en La Frontera","10702002-0","dga",-43.1742,-71.7544,314.0,"Temperatura",,0
657,"Rinconada-U de Chile","AG373","agromet",-33.497093,-70.845436,458.0,"Temperatura",24.72,100
931,"Ancud Liceo Agrícola","410026","dmc",-41.86611111111111,-73.81638888888888,31.0,"Temperatura",,0
601,"Pullancón","AG274","agromet",-32.30708283,-71.23075,92.0,"Temperatura",18.56,100
1299,"Licanchen","AG653","agromet",-33.9297485,-71.8010025,23.0,"Temperatura",19.11,100
1391,"Torobayo (CEHUMet)","zx:00:00:00:00:5f","redmeteo",-39.84,-73.28,15.0,"Temperatura",18.32,100
583,"Ventisquero-Tapihue","AG217","agromet",-33.300555556,-71.283333333,334.0,"Temperatura",,0
702,"San Pedro-Totihue","AG250","agromet",-34.341111111,-70.727777778,412.0,"Temperatura",,0
651,"Chocalan","AG50","agromet",-33.725555556,-71.209722222,155.0,"Temperatura",21.9,100
358,"Glaciar San Rafael","11440000-9","dga",-46.6433,-73.8575,8.0,"Temperatura",,0
165,"Cachapoal en Pte Arqueado","06019003-8","dga",-34.2731,-71.3717,115.0,"Temperatura",,0
1418,"Catemu","320055","dmc",-32.75889,-70.94278,443.0,"Temperatura",21.92,100
938,"El Yeso Embalse","05703008-9","dga",-33.6767,-70.0886,2475.0,"Temperatura",,0
769,"San Enrique","AG539","agromet",-39.261711,-71.868097,277.0,"Temperatura",19.26,100
458,"San José  Guayacán","330112","dmc",-33.6153,-70.3506,928.0,"Temperatura",,0
1123,"Illapel","CEAZA_INILLA_Illapel","ceaza",-31.64814,-71.19695,275.0,"Temperatura",19.22,100
335,"Lago Chapo","10430005-7","dga",-41.4297,-72.5764,290.0,"Temperatura",,0
262,"Río Huequecura Aguas Arriba de Embalse Angostura","08316002-0","dga",-37.7047,-71.7683,330.0,"Temperatura",,0
1109,"Quilquico","AG636","agromet",-42.491512,-73.708817,103.0,"Temperatura",16.97,100
892,"Río Hurtado en San Agustin","04501001-5","dga",-30.4622,-70.5361,2035.0,"Temperatura",,0
23,"Río Siloli antes B.t. Fcab","02103014-7","dga",-22.0103,-68.0269,4000.0,"Temperatura",,0
1382,"Lequecahue Tirúa Ad.","380080","dmc",-38.35944,-73.48833,153.0,"Temperatura",18.03,100
1380,"Padre Las Casas","yy:00:00:00:00:57","redmeteo",-38.76415,-72.59902,90.0,"Temperatura",,0
441,"El Loa, Calama Ad.","220002","dmc",-22.4989,-68.9072,2293.0,"Temperatura",19.05,100
1279,"Angol, Húsares","370067","dmc",-37.79583,-72.69472,69.0,"Temperatura",23.5,100
377,"Jorge Montt","11800000-5","dga",-48.254444444444445,-73.45972222222223,170.0,"Temperatura",,0
428,"San Sebastian","12863001-5","dga",-53.3217,-68.6614,20.0,"Temperatura",,0
155,"Cachapoal 5 km a. Jta Cortaderal","06003001-4","dga",-34.3464,-70.3764,1127.0,"Temperatura",,0
673,"Lo Prado Cerro San Francisco","AG301","agromet",-33.45805556,-70.94861111,1073.0,"Temperatura",,0
561,"Polizones","AG201","agromet",-41.115147,-73.376627833,136.0,"Temperatura",17.41,100
496,"La Union Norte","AG295","agromet",-40.288667,-73.071333,26.0,"Temperatura",20.5,100
690,"El Carmen","AG72","agromet",-34.608055556,-70.975,357.0,"Temperatura",24.13,100
479,"Villa O\"Higgins subcomisaría","480002","dmc",-48.4714,-72.5603,280.0,"Temperatura",,0
647,"Pirque","AG42","agromet",-33.673888889,-70.586944444,663.0,"Temperatura",23.05,100
1398,"Las Puertas","AG277","agromet",-32.362194,-70.81972183,549.0,"Temperatura",22.43,100
240,"Maule en Forel","07383001-K","dga",-35.4069,-72.2083,30.0,"Temperatura",,0
629,"Tamelaike","AG207","agromet",-45.759113833,-72.061842833,470.0,"Temperatura",14.57,100
288,"Cn Laja-Diguillín","08380005-4","dga",-37.3006,-71.9642,0.0,"Temperatura",,0
668,"Calera de Tango","AG49","agromet",-33.630555556,-70.799166667,469.0,"Temperatura",23.21,100
297,"Río Leiva en Puente Camino a Contulmo","08821006-9","dga",-37.8131,-73.3922,48.0,"Temperatura",,0
216,"Cn Duao Zapata","07322008-4","dga",-35.5892,-71.5358,0.0,"Temperatura",,0
1346,"Punta Arenas","yy:00:00:00:00:36","redmeteo",-53.136312,-70.92181,80.0,"Temperatura",,0
58,"Antofagasta","02710003-1","dga",-23.5975,-70.3867,50.0,"Temperatura",,0
797,"Las Palmas","AG318","agromet",-38.227778,-72.273333,383.0,"Temperatura",19.09,100
511,"Monte Patria","AG15","agromet",-30.682222222,-70.939444444,563.0,"Temperatura",23.45,100
684,"La Estrella Norte","AG80","agromet",-34.213333333,-71.716111111,288.0,"Temperatura",,0
656,"El Paico","AG303","agromet",-33.70638889,-71.00805556,270.0,"Temperatura",,0
32,"El Tatio","02105022-9","dga",-22.3711,-68.0133,4370.0,"Temperatura",,0
431,"Pampa Huanaco","12876003-2","dga",-54.0497,-68.7997,150.0,"Temperatura",,0
703,"Codegua","AG64","agromet",-34.110277778,-70.653611111,510.0,"Temperatura",24.17,100
1353,"Los Molles","yy:00:00:00:00:3d","redmeteo",-32.213849,-71.511683,112.0,"Temperatura",17.24,100
363,"Rio Baker Desague Lago Bertrand","11530000-8","dga",-47.0667,-72.8,200.0,"Temperatura",,0
707,"Santa Cruz","AG76","agromet",-34.690833333,-71.4,171.0,"Temperatura",26.08,100
243,"Chillan Viejo","08117002-9","dga",-36.6319,-72.1267,115.0,"Temperatura",,0
790,"La Isla","AG370","agromet",-38.03,-72.982,70.0,"Temperatura",19.95,100
308,"Río Allipen en los Laureles","09404001-9","dga",-38.9833,-72.2333,190.0,"Temperatura",,0
654,"El Monte","AG56","agromet",-33.691944444,-71.100833333,213.0,"Temperatura",22.8,100
1265,"Azapa","01310019-5","dga",-18.5156,-70.1806,365.0,"Temperatura",,0
309,"Río Trancura en Curarrehue","09412001-2","dga",-39.36,-71.5808,400.0,"Temperatura",,0
179,"Embalse Rapel  LLallauquen","06053001-7","dga",-34.22888888888889,-71.45222222222222,120.0,"Temperatura",,0
858,"General Freire, Curicó Ad.","AG305","agromet",-34.96638889,-71.21666667,227.0,"Temperatura",,0
274,"Angol","08358002-K","dga",-37.7794,-72.6372,113.0,"Temperatura",,0
126,"Río Colorado antes Junta Río Olivares","05705001-2","dga",-33.49,-70.1342,1500.0,"Temperatura",,0
1312,"Surire","AG150","agromet",-18.794647,-69.084442833,4265.0,"Temperatura",,0
86,"Quebrada Larga","04520006-K","dga",-30.7253,-70.2917,3500.0,"Temperatura",,0
1401,"Lord Cochrane Ad.","470001","dmc",-47.24389,-72.5825,209.0,"Temperatura",,0
1140,"Islote Pájaros","CEAZA_MARIP_Islote Pájaros","ceaza",-29.5851,-71.5375,41.0,"Temperatura",,0
465,"Nilahue - La Quebrada","340066","dmc",-34.6314,-71.725,81.0,"Temperatura",,0
735,"Mulchén","AG116","agromet",-37.703611111,-72.216944444,180.0,"Temperatura",23.2,100
5,"Colchane","01041003-7","dga",-19.2764,-68.6378,3700.0,"Temperatura",,0
365,"Cochrane en Cochrane","11536001-9","dga",-47.2517,-72.5644,140.0,"Temperatura",,0
1446,"El Buchen","yy:00:00:00:00:6a","redmeteo",-35.28,-70.97,1300.0,"Temperatura",19.71,100
144,"Apr Colina las Canteras","05736008-9","dga",-33.28972222222222,-76.69638888888889,0.0,"Temperatura",,0
1457,"Villa Alemana","yy:00:00:00:00:6b","redmeteo",-33.048,-71.351,165.0,"Temperatura",19.45,100
184,"Potrero Grande","07116005-K","dga",-35.1833,-71.0978,445.0,"Temperatura",,0
283,"Cn Abanico Km 049","08375002-2","dga",-37.3344,-71.5336,890.0,"Temperatura",,0
1367,"El Oasis","AG688","agromet",-33.286268,-70.83606,487.0,"Temperatura",25.59,100
412,"Cerro Mirador","12586006-0","dga",-53.1842,-71.0833,580.0,"Temperatura",,0
1270,"Cerro Sombrero, Estrecho de magallanes","520030","dmc",-52.77639,-69.28805,64.0,"Temperatura",11.33,100
584,"Nogales","AG34","agromet",-32.736388889,-71.199166667,224.0,"Temperatura",21.4,100
266,"Embalse Central Angostura","08317006-9","dga",-37.7131,-71.8172,324.0,"Temperatura",,0
192,"Río Maule en Desague Laguna Del Maule","07300001-7","dga",-36.0114,-70.5547,2170.0,"Temperatura",,0
143,"Quebrada de Macul","05730039-6","dga",-33.5017,-70.5144,950.0,"Temperatura",,0
212,"Cn Maule S en Aforador","07322002-5","dga",-35.6389,-71.3839,315.0,"Temperatura",,0
167,"Termas del Flaco","06020001-7","dga",-34.891666666666666,-70.32972222222222,2650.0,"Temperatura",,0
7,"Río Caracarani en Humapalca","01201005-2","dga",-17.8428,-69.6994,3908.0,"Temperatura",,0
418,"Río Penitente en Morro Chico","12622001-4","dga",-52.0511,-71.4247,170.0,"Temperatura",,0
1472,"Salamanca Pisco Capel","310044","dmc",-31.78722,-70.95944,516.0,"Temperatura",,0
1103,"Pailahueque","AG648","agromet",-38.145552,-72.6596649,188.0,"Temperatura",18.83,100
1363,"Temuco sector Norte","yy:00:00:00:00:49","redmeteo",-38.698183,-72.552011,120.0,"Temperatura",,0
373,"Lago O","11702000-2","dga",-48.5169,-72.5953,300.0,"Temperatura",,0
596,"Los Perales","AG385","agromet",-32.333038,-70.744202,810.0,"Temperatura",,0
245,"Canal de la Luz en Chillan","08117009-6","dga",-36.5967,-72.1003,136.0,"Temperatura",,0
1373,"Curicó Sector Sur","yy:00:00:00:00:4e","redmeteo",-34.991133,-71.247377,210.0,"Temperatura",25.29,100
1309,"Azapa Alto","AG144","agromet",-18.577453833,-69.947264,844.0,"Temperatura",21.07,100
421,"Río Side en Cerro Sombrero","12802001-2","dga",-52.7681,-69.2772,10.0,"Temperatura",,0
854,"Monte Flor-Tucapel","AG368","agromet",-36.2448,-71.93429,155.0,"Temperatura",22.42,100
641,"Los Tilos","AG285","agromet",-33.7,-70.7,535.0,"Temperatura",23.95,100
612,"Los Libertadores","AG298","agromet",-32.84555556,-70.11916667,2954.0,"Temperatura",,0
785,"La Paz","AG523","agromet",-39.428135,-72.718521,86.0,"Temperatura",18.16,100
1480,"Santa Rita - Porvenir","AG769","agromet",-35.1725,-71.2755,279.0,"Temperatura",22.64,100
1240,"PUERTO PUYUHUAPI","11120001-7","dga",-44.3228,-72.5597,10.0,"Temperatura",,0
277,"Cn Des C Antuco","08371001-2","dga",-37.3167,-71.6667,0.0,"Temperatura",,0
40,"Canal Chunchurri Bajo","02110022-6","dga",-22.483611111111113,-68.92888888888889,2245.0,"Temperatura",,0
114,"Putaendo Rdo. Los Patos","05414001-0","dga",-32.5017,-70.5811,1218.0,"Temperatura",,0
477,"Puerto Aysén Ad.","450001","dmc",-45.3961,-72.6639,11.0,"Temperatura",16.5,100
352,"Río Magniguales antes Junta Río Simpson","11308001-9","dga",-45.3833,-72.4667,20.0,"Temperatura",,0
913,"UNAP (Universidad Arturo Prat), Iquique","200010","dmc",-20.270833333333332,-70.13083333333333,30.0,"Temperatura",21.29,100
599,"Panquehue","AG29","agromet",-32.756638889,-70.808833333,553.0,"Temperatura",24.43,100
1322,"Cañal Bajo,  Osorno Ad.","400009","dmc",-40.61444,-73.0575,61.0,"Temperatura",18.84,100
1124,"Combarbalá [C.del Sur]","CEAZA_COMB_Combarbalá [C.del Sur]","ceaza",-31.20022,-71.00015,1136.0,"Temperatura",24.21,100
17,"Q. Camiña 3 Km. A. Arriba de Tarcavire","01610004-8","dga",-19.1181,-69.2447,3848.0,"Temperatura",,0
345,"ancud doh","10900002-7","dga",-41.8792,-73.7964,9.0,"Temperatura",,0
726,"San Ignacio","AG110","agromet",-36.843611111,-72.124722222,182.0,"Temperatura",22.05,100
128,"Río Olivares antes Junta Río Colorado","05706001-8","dga",-33.4878,-70.1367,1500.0,"Temperatura",,0
68,"Río Copiapo en Pastillo","03430003-8","dga",-28.0003,-69.9747,1300.0,"Temperatura",,0
1478,"Peor es Nada","AG774","agromet",-34.783248,-71.043411,279.0,"Temperatura",21.69,100
254,"Bío Bío Llanquén","08307002-1","dga",-38.2008,-71.2989,767.0,"Temperatura",,0
233,"Talca U.c.","07378002-0","dga",-35.4358,-71.6197,130.0,"Temperatura",,0
1310,"Pampa Concordia","AG655","agromet",-18.362922,-70.302033,102.0,"Temperatura",22.25,100
1225,"LINARES","07358007-2","dga",-35.8381,-71.5953,153.0,"Temperatura",,0
388,"Río las Chinas antes Desague Del Toro","12284007-7","dga",-51.25,-72.5167,50.0,"Temperatura",,0
6,"Lluta Alcérreca","01201003-6","dga",-18.0036,-69.6331,3550.0,"Temperatura",,0
555,"El Tapado","AG330","agromet",-30.1567,-69.91421,4452.0,"Temperatura",,0
534,"El Romeral","AG356","agromet",-29.75497,-71.25753,154.0,"Temperatura",17.24,100
634,"HUECHÚN EX Lampa","AG40","agromet",-33.021944444,-71.186388889,600.0,"Temperatura",26.44,100
207,"Cn Maule Norte en Aforador","07321003-8","dga",-35.7039,-71.1161,461.0,"Temperatura",,0
287,"Cn Laja Camino Tucapel","08380002-K","dga",-37.3003,-71.9703,298.0,"Temperatura",,0
645,"Santa Rita","AG221","agromet",-33.718611111,-70.669166667,520.0,"Temperatura",,0
593,"Petorca","AG21","agromet",-32.396666667,-71.029444444,253.0,"Temperatura",20.31,100
831,"CE Huasco Vallenar","AG159","agromet",-28.58113,-70.798289833,467.0,"Temperatura",18.99,100
749,"Altos la Portada","AG479","agromet",-23.5040977,-70.4046663,112.0,"Temperatura",21.53,100
372,"Rio Mayer Desembocadura","11701001-5","dga",-48.4833,-72.6,350.0,"Temperatura",,0
1444,"Corral (CEHUMet)","zx:00:00:00:00:68","redmeteo",-39.9,-73.42,27.0,"Temperatura",,0
1434,"Pucón Aeródromo","390056","dmc",-39.29111,-71.91694,264.0,"Temperatura",20.57,100
331,"Adolfo Matthei","10360002-2","dga",-40.5883,-73.1069,55.0,"Temperatura",,0
1416,"Peñablanca","CEAZA_PNB_Peñablanca","ceaza",-30.900563800000004,-71.55375,370.0,"Temperatura",,0
138,"Estero Yerba Loca en Piedra Carvajal","05721017-6","dga",-33.2214,-70.2736,3250.0,"Temperatura",,0
676,"Palmilla","AG79","agromet",-34.546666667,-71.395,147.0,"Temperatura",25.81,100
721,"Coronel","AG172","agromet",-37.004823,-73.140405,64.0,"Temperatura",,0
180,"Embalse Rapel El Muro","06054001-2","dga",-34.03722222222222,-71.58555555555554,125.0,"Temperatura",,0
169,"Claro Valle dos","06027001-5","dga",-34.6867,-70.8739,476.0,"Temperatura",,0
1176,"MAMIÑA","01750003-1","dga",-20.0756,-69.2147,2730.0,"Temperatura",,0
1314,"La Polvareda","AG664","agromet",-30.882719,-71.239736,264.0,"Temperatura",20.97,100
318,"Río Calle Calle en Pupunahue","10122003-6","dga",-39.8044,-72.9025,60.0,"Temperatura",,0
1468,"Santa Carolina - El Encuentro","AG764","agromet",-35.89338,-72.03633,124.0,"Temperatura",,0
215,"Cn San Clemente","07322007-6","dga",-35.5822,-71.5306,0.0,"Temperatura",,0
731,"Lebu","AG174","agromet",-37.682541,-73.522166833,196.0,"Temperatura",16.7,100
1291,"Mirador Marchant, Coyhaique","450022","dmc",-45.52528,-72.09806,438.0,"Temperatura",15.2,100
1395,"Cartagena","yy:00:00:00:00:63","redmeteo",-33.54893,-71.60218,23.0,"Temperatura",,0
104,"Río Juncal en Juncal","05401003-6","dga",-32.8625,-70.1675,2200.0,"Temperatura",,0
750,"Ollague","AG154","agromet",-21.2167,-68.233055556,3701.0,"Temperatura",16.26,100
152,"Leñas Cachapoal","06000003-4","dga",-34.3628,-70.3056,1296.0,"Temperatura",,0
1381,"Curicó","AG696","agromet",-34.940973,-71.222752,222.0,"Temperatura",22.94,100
652,"Chocalán ","AG223","agromet",-33.760555556,-71.225555556,185.0,"Temperatura",,0
660,"COLINA ","AG48","agromet",-33.218777778,-70.715833333,547.0,"Temperatura",25.09,100
1393,"Máfil (CEHUMet)","zx:00:00:00:00:61","redmeteo",-39.67,-72.95,6.0,"Temperatura",,0
422,"Bahia San Felipe","12806004-9","dga",-52.8697,-69.9319,10.0,"Temperatura",,0
895,"Embalse Cogoti","04534002-3","dga",-31.004722222222224,-71.08916666666666,0.0,"Temperatura",,0
1355,"Viña del Mar, Las Salinas","yy:00:00:00:00:3f","redmeteo",-32.994635,-71.544479,25.0,"Temperatura",,0
813,"Chaca","AG310","agromet",-18.81,-70.156,327.0,"Temperatura",23.0,100
1190,"PASTOS GRANDES","03441001-1","dga",-27.1142,-69.5642,2268.0,"Temperatura",,0
1180,"CUPO","02105014-8","dga",-22.1147,-68.3167,3384.0,"Temperatura",,0
1436,"VP - Nancagua","AG751","agromet",-34.651639,-71.216778,207.0,"Temperatura",21.07,100
1356,"El Carmen","wl:1d:0a:00:91:56","redmeteo",-30.46796,-71.03493,391.1,"Temperatura",,0
1178,"RIO LOA EN SALIDA EMBALSE CONCHI","02104002-9","dga",-22.0278,-68.6208,2948.0,"Temperatura",,0
198,"Estero Las Garzas","07308001-0","dga",-35.7525,-71.0025,600.0,"Temperatura",,0
492,"Estación Experimental Austral","AG375","agromet",-39.787428,-73.234546,17.0,"Temperatura",18.04,100
89,"Río Cogoti Entrada Embalse Cogoti","04531002-7","dga",-31.0325,-71.0403,670.0,"Temperatura",,0
683,"La Estrella Sur Ex Pumanque","AG78","agromet",-34.213333333,-71.716111111,288.0,"Temperatura",,0
1138,"Tongoy Balsa CMET","CEAZA_BTG_Tongoy Balsa CMET","ceaza",-30.27508,-71.56158,0.0,"Temperatura",17.87,100
814,"Truffa - Azapa medio","AG151","agromet",-18.547727833,-70.124645833,389.0,"Temperatura",22.26,100
461,"Lo Pinto","330118","dmc",-33.2681,-70.7322,512.0,"Temperatura",26.04,100
42,"Captacion Sqm Maria Elena","02112012-K","dga",-22.349859216849,-69.5661996665693,0.0,"Temperatura",,0
175,"Asentamiento la Puerta","06034017-K","dga",-34.60944444444445,-71.38083333333333,0.0,"Temperatura",,0
387,"Las Chinas en Cerro Guido","12284006-9","dga",-51.0508,-72.5169,75.0,"Temperatura",,0
231,"Cn Rest S1","07358010-2","dga",-35.7428,-71.4217,0.0,"Temperatura",,0
1425,"Luis Felipe Edwards – Santo Domingo","AG742","agromet",-33.737533,-71.639331,86.0,"Temperatura",,0
745,"Navidad","AG181","agromet",-36.907300833,-71.935601,314.0,"Temperatura",21.47,100
1283,"San Felipe Escuela Agrícola","320019","dmc",-32.75528,-70.70694,662.0,"Temperatura",25.69,100
770,"Loncoche","AG128","agromet",-39.393333333,-72.636666667,107.0,"Temperatura",18.8,100
637,"San Antonio de Naltahua","AG267","agromet",-33.725439,-71.042558,242.0,"Temperatura",21.97,100
1144,"Canela","CEAZA_CAN_Canela","ceaza",-31.390890000000002,-71.41298,350.0,"Temperatura",17.97,100
1369,"Desierto de Atacama, Caldera  Ad.","270008","dmc",-27.25444,-70.78111,197.0,"Temperatura",18.48,100
875,"Torres","AG242","agromet",-35.567222222,-72.29,429.0,"Temperatura",,0
696,"QUINTA TILCOCO","AG57","agromet",-34.362,-70.935277778,297.0,"Temperatura",24.45,100
755,"Camar","AG487","agromet",-23.407102,-67.963735,2697.0,"Temperatura",20.84,100
1,"Visviri","01000005-K","dga",-17.595,-69.4831,4080.0,"Temperatura",,0
1411,"Las Canteras","AG704","agromet",-27.742834,-70.182129,789.0,"Temperatura",25.31,100
190,"Gualleco","07200001-3","dga",-35.2439,-71.98,100.0,"Temperatura",,0
933,"Magallanes Villa Tehuelche","520015","dmc",-52.428888888888885,-71.41611111111112,176.0,"Temperatura",11.2,100
573,"Frutillar","AG141","agromet",-41.028888889,-73.044166667,133.0,"Temperatura",,0
686,"Requinoa","AG82","agromet",-34.321667,-70.833694,373.0,"Temperatura",24.78,100
663,"San Pedro de Melipilla","AG268","agromet",-33.897935,-71.452881,143.0,"Temperatura",20.44,100
444,"Taltal","250005","dmc",-25.4111,-70.4842,37.0,"Temperatura",20.43,100
736,"Bulnes","AG112","agromet",-36.735555556,-72.366944444,74.0,"Temperatura",18.39,91
520,"Tamaya","AG212","agromet",-30.566388889,-71.396111111,292.0,"Temperatura",,0
1451,"Boonen Rivera","950012","dmc",-63.5375,-57.40889,124.0,"Temperatura",,0
1413,"Nantoco","AG710","agromet",-27.55176,-70.26957,562.0,"Temperatura",22.11,100
1324,"Quilpué","yy:00:00:00:00:02","redmeteo",-33.076,-71.421,170.0,"Temperatura",,0
947,"Quemchi","10900001-9","dga",-42.1408,-73.4731,5.0,"Temperatura",,0
1441,"La Unión, Liceo Politécnico","400058","dmc",-40.31,-73.00389,60.0,"Temperatura",,0
404,"Río Verde","12454001-1","dga",-52.6042,-71.5019,10.0,"Temperatura",,0
305,"Estero Botrolhue en Temuco","09129008-1","dga",-38.7328,-72.6456,106.0,"Temperatura",,0
244,"Río Chillan en Esperanza N 2","08117006-1","dga",-36.8,-71.6608,586.0,"Temperatura",,0
1357,"Concón","yy:00:00:00:00:41","redmeteo",-32.921228,-71.513496,44.0,"Temperatura",,0
851,"San Pedro-Molina","AG252","agromet",-35.103055556,-71.338333333,225.0,"Temperatura",24.38,100
383,"Lago Paine","12280006-7","dga",-50.8378,-72.8319,446.0,"Temperatura",,0
362,"Lago General Carrera Fachinal","11521005-K","dga",-46.5425,-72.2267,18.0,"Temperatura",,0
394,"Río Grey antes Junta Serrano","12287001-4","dga",-51.1833,-73.0167,30.0,"Temperatura",,0
1297,"Futaleufú Ad.","430002","dmc",-43.18889,-71.85222,347.0,"Temperatura",20.37,100
330,"Negro en Chahuilco","10356001-2","dga",-40.7136,-73.2278,45.0,"Temperatura",,0
842,"Falda Verde","AG447","agromet",-26.299806,-70.624111,122.0,"Temperatura",18.79,100
37,"Calama","02110013-7","dga",-22.4494,-68.9044,2300.0,"Temperatura",,0
350,"Río Cisnes antes Junta Río Moro","11143001-2","dga",-44.6592,-71.8083,500.0,"Temperatura",,0
241,"Constitucion","07384002-3","dga",-35.3242,-72.4089,10.0,"Temperatura",,0
2,"Chungara Ajata","01010010-0","dga",-18.2353,-69.1833,4585.0,"Temperatura",,0
747,"San Nicolás","AG114","agromet",-36.517777778,-72.094444444,125.0,"Temperatura",24.85,100
1228,"RIO ITATA EN COELEMU","08141001-1","dga",-36.4669,-72.6911,43.0,"Temperatura",,0
1106,"San Sebastián","AG642","agromet",-38.435064,-72.399024,294.0,"Temperatura",18.05,100
695,"Ventisquero-Peralillo","AG230","agromet",-34.394444444,-71.445555556,136.0,"Temperatura",27.81,100
1321,"Puerto Ibañez","AG685","agromet",-46.278309,-71.941433,219.0,"Temperatura",18.9,100
791,"Freire","AG127","agromet",-38.971388889,-72.784166667,81.0,"Temperatura",,0
31,"Salado Embalse","02105020-2","dga",-22.2856,-68.2028,3200.0,"Temperatura",,0
481,"Instituto de la Patagonia (Jorge Schytte)","520012","dmc",-53.13,-70.8875,11.0,"Temperatura",10.48,100
1145,"Salamanca [Chillepín]","CEAZA_CHILL_Salamanca [Chillepín]","ceaza",-31.88563,-70.71395,887.0,"Temperatura",23.84,100
672,"San Pablo - DASA","AG304","agromet",-33.44222222,-70.74666667,491.0,"Temperatura",,0
1231,"RIO BUTAMALAL EN BUTAMALAL","08821002-6","dga",-37.8167,-73.25,52.0,"Temperatura",,0
869,"Vichuquen","AG413","agromet",-34.8549722,-72.0260556,10.0,"Temperatura",21.29,100
272,"Los Angeles","08334002-9","dga",-37.5022,-72.4083,129.0,"Temperatura",,0
1358,"Colina","yy:00:00:00:00:42","redmeteo",-33.226795,-70.671829,554.0,"Temperatura",26.26,100
760,"Marimenuco","AG313","agromet",-38.731667,-71.140833,1079.0,"Temperatura",16.07,100
887,"Los Despachos","AG167","agromet",-36.062114,-72.371438833,173.0,"Temperatura",25.93,100
1132,"Huintil","CEAZA_CHHT_Huintil","ceaza",-31.57331,-70.99815,590.0,"Temperatura",18.97,100
280,"Volcan Chillan","08374001-9","dga",-36.89361111111111,-71.41194444444444,2060.0,"Temperatura",,0
801,"Puerto Natales","AG209","agromet",-51.698366833,-72.483081833,109.0,"Temperatura",12.89,100
586,"La Petorca","AG382","agromet",-32.274509,-70.965538,455.0,"Temperatura",,0
1164,"Viña del Mar  Ad. (Torquemada)","320041","dmc",-32.94944,-71.47444,141.0,"Temperatura",16.55,100
359,"Glaciar San Rafael en Campo de Hielo Norte","11440001-7","dga",-46.70527777777778,-73.5936111111111,1189.0,"Temperatura",,0
321,"Cruces en Rucaco","10134001-5","dga",-39.55,-72.9,60.0,"Temperatura",,0
1427,"Chacabuco","AG736","agromet",-33.2488,-70.72322,523.0,"Temperatura",25.77,100
883,"Santa Sofia","AG168","agromet",-35.977643,-72.359864,153.0,"Temperatura",25.76,100
662,"Peldehue","AG438","agromet",-33.1471111,-70.6602222,713.0,"Temperatura",26.34,100
27,"Río San Pedro en Parshall 2","02103018-K","dga",-21.949325332067,-68.5164275951382,3312.0,"Temperatura",,0
219,"Canal Alimentador Digua","07331004-0","dga",-36.2361,-71.5325,0.0,"Temperatura",,0
636,"Isla de Maipo","AG55","agromet",-33.763888889,-70.886666667,349.0,"Temperatura",23.26,100
536,"Cerro Grande","AG323","agromet",-29.93849,-71.22358,519.0,"Temperatura",14.14,100
837,"Bodega","AG7","agromet",-27.343611111,-70.372777778,342.0,"Temperatura",20.83,100
630,"Vista Hermosa","AG208","agromet",-45.936818,-71.835341833,718.0,"Temperatura",13.93,100
1442,"María Dolores, Los Angeles Ad.","370033","dmc",-37.39694,-72.42389,118.0,"Temperatura",23.49,100
1439,"VP - Maule","AG749","agromet",-35.527889,-71.614778,140.0,"Temperatura",23.54,100
923,"Curacaví Ad.","330121","dmc",-33.41111111111111,-71.16777777777779,208.0,"Temperatura",24.1,100
29,"Salado S. Ayquina","02105002-4","dga",-22.2894,-68.3447,2980.0,"Temperatura",,0
1146,"Coquimbo [El Panul]","CEAZA_4_Coquimbo [El Panul]","ceaza",-29.99874,-71.39851999999999,122.0,"Temperatura",,0
301,"Malalcahuello","09120003-1","dga",-38.4703,-71.5753,950.0,"Temperatura",,0
98,"Río Illapel en el Peral","04726001-9","dga",-31.6647,-71.2547,0.0,"Temperatura",,0
1298,"Carlos Ibañez, Punta Arenas Ap.","520006","dmc",-53.00167,-70.83861,36.0,"Temperatura",10.78,100
99,"Río Choapa Aguas Arriba Estero la Canela","04730001-0","dga",-31.5836,-71.4606,40.0,"Temperatura",,0
781,"Pocoyan ","AG125","agromet",-38.9925,-73.098888889,29.0,"Temperatura",,0
1386,"Pichilemu","yy:00:00:00:00:5a","redmeteo",-34.40074,-72.00233,40.0,"Temperatura",,0
269,"Estero Paillihue en Ex Longitudinal Sur","08324002-4","dga",-37.4728,-72.3244,138.0,"Temperatura",,0
1295,"Melinka Ad.","430009","dmc",-43.89667,-73.74028,11.0,"Temperatura",15.3,93
1417,"Casa del Encanto","CEAZA_CDC_Casa del Encanto","ceaza",-31.417337,-70.589,3570.0,"Temperatura",,0
109,"Río Aconcagua en Río Blanco","05403002-9","dga",-32.9067,-70.3036,1420.0,"Temperatura",,0
1101,"Concha y Toro - Pencahue","AG625","agromet",-35.44522,-71.83436,66.0,"Temperatura",10.23,100
100,"Estero Pupio en el Romero","04810001-5","dga",-31.9481,-71.0747,570.0,"Temperatura",,0
70,"Copiapo","03450004-5","dga",-27.3772,-70.3308,385.0,"Temperatura",,0
1449,"Pta. Py - INACH","950010","dmc",-64.90528,-63.73722,78.0,"Temperatura",,0
577,"Garcés Silva","AG246","agromet",-33.681388889,-71.495833333,193.0,"Temperatura",,0
610,"Puchuncavi","AG398","agromet",-32.7310833,-71.4241389,21.0,"Temperatura",17.6,100
424,"Onaisin en Maria Cristina","12815001-3","dga",-53.3056,-69.2675,30.0,"Temperatura",,0
173,"Estero Chimbarongo en Ruta 5","06033011-5","dga",-34.7889,-71.0458,275.0,"Temperatura",,0
306,"Estero Botrolhue en Labranza","09129009-K","dga",-38.7639,-72.7542,64.0,"Temperatura",,0
554,"Falernia","AG211","agromet",-30.0275,-70.801666667,509.0,"Temperatura",,0
367,"Lago Cachet 2","11540000-2","dga",-47.1981,-73.25,427.0,"Temperatura",,0
426,"Río Caleta en Tierra Del Fuego","12820001-0","dga",-53.8586,-69.9989,280.0,"Temperatura",,0
462,"General Freire, Curicó Ad.","340031","dmc",-34.9664,-71.2167,230.0,"Temperatura",25.25,100
808,"Punta Arenas Rural","AG210","agromet",-53.068313,-70.873761,51.0,"Temperatura",10.33,100
841,"La Copa","AG582","agromet",-27.345439,-70.622009,188.0,"Temperatura",20.19,100
916,"Freirina Nicolasa","280010","dmc",-28.516944444444444,-71.01,156.0,"Temperatura",18.43,100
764,"Galvarino ","AG122","agromet",-38.359166667,-72.709722222,230.0,"Temperatura",18.82,100
41,"Río San Salvador en Nacimiento","02111005-1","dga",-22.447222222222223,-68.96055555555556,2210.0,"Temperatura",,0
860,"San Jorge Los Niches","AG491","agromet",-35.0918,-71.120579,305.0,"Temperatura",21.04,100
1437,"VP - Cauquenes","AG747","agromet",-35.759194,-72.069611,132.0,"Temperatura",24.56,100
701,"Luis Felipe Edwards","AG251","agromet",-34.693055556,-71.156944444,222.0,"Temperatura",,0
704,"Codegua Norte Ex Rancagua","AG61","agromet",-34.108888889,-70.639583333,524.0,"Temperatura",23.93,100
1403,"Los Angeles Centro","00:0e:c6:30:22:87","redmeteo",-37.466041,-72.359035,136.0,"Temperatura",23.36,100
166,"Estadio Peumo","06019007-0","dga",-34.39527777777778,-71.16222222222223,0.0,"Temperatura",,0
1233,"RIO FUI EN DESAGÜE LAGO PIRIHUEICO","10100002-8","dga",-39.8747,-71.8897,601.0,"Temperatura",,0
400,"Lago Anibal Pinto","12402000-K","dga",-52.0911,-72.4361,51.0,"Temperatura",,0
106,"Río Blanco en Río Blanco","05402001-5","dga",-32.9072,-70.2978,1420.0,"Temperatura",,0
211,"Maule Longitudinal","07322001-7","dga",-35.5575,-71.7067,90.0,"Temperatura",,0
1370,"Luis Felipe Edwards-Pumanque","AG691","agromet",-34.640893,-71.776318,89.0,"Temperatura",,0
816,"Azapa1","AG1","agromet",-18.509638889,-70.248055554,140.0,"Temperatura",,0
924,"Río Clarillo","330075","dmc",-33.72833333333333,-70.49666666666667,876.0,"Temperatura",,0
952,"Liceo Jean Buchanan","AG630","agromet",-34.3972892,-71.1646719,181.0,"Temperatura",25.86,100
761,"Dominguez","AG185","agromet",-38.918610833,-73.240278,104.0,"Temperatura",17.16,100
403,"Río Perez en Desembocadura","12452001-0","dga",-52.5492,-71.9747,20.0,"Temperatura",,0
678,"Conosur","AG233","agromet",-34.715555556,-71.038611111,304.0,"Temperatura",,0
346,"Castro 2","10901004-9","dga",-42.4794,-73.7742,20.0,"Temperatura",,0
218,"Digua Embalse","07331002-4","dga",-36.2558,-71.5481,390.0,"Temperatura",,0
655,"Melipilla","AG44","agromet",-33.65,-71.1,250.0,"Temperatura",23.03,100
1113,"NOS  Aguas Andinas","330115","dmc",-33.62083,-70.71167,555.0,"Temperatura",,0
795,"Gaby-Ranquilco","AG531","agromet",-38.116919,-72.883497,73.0,"Temperatura",20.63,100
943,"Estero Quilque en los Angeles","08366002-3","dga",-37.4561,-72.3272,144.0,"Temperatura",,0
939,"Mapocho Los Almendros","05722002-3","dga",-33.3703,-70.4508,966.0,"Temperatura",,0
592,"San Lorenzo","AG273","agromet",-32.43941683,-71.00296083,244.0,"Temperatura",21.26,100
452,"Juan Fernández, Estación Meteorológica.","330031","dmc",-33.6367,-78.835,40.0,"Temperatura",19.67,100
929,"Panguipulli","390029","dmc",-39.63444444444444,-72.34388888888888,229.0,"Temperatura",,0
624,"Coyhaique","AG143","agromet",-45.739722222,-72.125833333,291.0,"Temperatura",15.82,100
299,"Río Lumaco en Lumaco","09102001-7","dga",-38.15,-72.9,70.0,"Temperatura",,0
74,"Ne-7 Río Blanco Ante Junta Río Chollay","03803005-1","dga",-29.133333333333333,-70.13611111111112,0.0,"Temperatura",,0
279,"Polcura 4 Junta","08372002-6","dga",-37.1072,-71.2422,1319.0,"Temperatura",,0
268,"Río Duqueco en Cerrillos","08323001-0","dga",-37.5422,-72.3119,129.0,"Temperatura",,0
675,"Placilla Chacarilla","AG294","agromet",-34.641583,-71.135667,240.0,"Temperatura",24.44,100
76,"Río Carmen en el Corral","03814003-5","dga",-29.1094,-70.4139,2000.0,"Temperatura",,0
393,"Río Rincon","12286002-7","dga",-51.3139,-72.8292,36.0,"Temperatura",,0
510,"Monte Patria El Palqui","AG161","agromet",-30.774543833,-70.926831,505.0,"Temperatura",23.0,100
47,"Quebrada la Chimba","02240002-9","dga",-23.5586,-70.3953,33.0,"Temperatura",,0
553,"Llanos de Huanta","AG363","agromet",-29.82247,-70.34373,1776.0,"Temperatura",,0
865,"San Clemente","AG312","agromet",-35.531,-71.574,160.0,"Temperatura",23.87,100
1471," Ad. Ricardo García Posada, El Salvador","260010","dmc",-26.31305,-69.75139,1610.0,"Temperatura",,0
1286,"Viu Manent – Santa Cruz","AG650","agromet",-34.646111111,-71.313611111,178.0,"Temperatura",,0
1360,"Placilla de Peñuelas","yy:00:00:00:00:44","redmeteo",-33.124,-71.569,348.0,"Temperatura",18.63,100
1423,"Luis Felipe Edwards - Puquillay","AG725","agromet",-34.6799266,-71.1307992,701.0,"Temperatura",24.87,100
1452,"Base O\"Higgins - INACH","950013","dmc",-63.32167,-57.89778,1.0,"Temperatura",,0
946,"Monte Tronador en Casa Pangue","10451000-0","dga",-41.0675,-71.86749999999999,430.0,"Temperatura",,0
849,"Aresti","AG238","agromet",-35.151388889,-71.298055556,257.0,"Temperatura",11.9,100
954,"El Milagro, Buin","330160","dmc",-33.754444444444445,-70.76444444444445,460.0,"Temperatura",22.56,100
882,"El Aromo","AG254","agromet",-35.535555556,-71.598333333,150.0,"Temperatura",,0
357,"Río Aysen en Puerto Aysen","11342001-4","dga",-45.4058,-72.6231,32.0,"Temperatura",,0
838,"Copiapo","AG6","agromet",-27.345833333,-70.407777778,345.0,"Temperatura",21.13,100
1135,"Hurtado [Lavaderos]","CEAZA_LVD_Hurtado [Lavaderos]","ceaza",-30.3093,-70.62565,1462.0,"Temperatura",24.69,100
252,"Río Andalien en Puente Trinitarias","08220009-6","dga",-36.7988453799826,-72.9516848929346,25.0,"Temperatura",,0
30,"Linzor","02105016-4","dga",-22.2297,-68.0228,4100.0,"Temperatura",,0
552,"Paso Aguas Negras","AG341","agromet",-30.19137,-69.82546,4771.0,"Temperatura",4.05,100
1448,"Carvajal - INACH","950009","dmc",-67.77583,-68.88833,2.0,"Temperatura",,0
1316,"Las Puentes","AG670","agromet",-37.305126,-73.436712,126.0,"Temperatura",21.57,100
120,"Valparaíso","05510007-1","dga",-33.04138888888889,-71.60444444444444,44.0,"Temperatura",,0
205,"Rio Claro en San Carlos","07320003-2","dga",-35.6989,-71.0683,550.0,"Temperatura",,0
694,"Hacienda Araucano-Lolol","AG234","agromet",-34.727222222,-71.588888889,127.0,"Temperatura",22.17,100
158,"Canal Sauzal en Puente Termas","06008009-7","dga",-34.2403,-70.5506,750.0,"Temperatura",,0
1133,"Rivadavia","CEAZA_PYRV_Rivadavia","ceaza",-29.96173,-70.53908,900.0,"Temperatura",,0
1454,"Punta Armonía","950015","dmc",-62.30361,-59.19667,1.0,"Temperatura",,0
697,"El Arenal","AG389","agromet",-34.35575,-70.991278,264.0,"Temperatura",25.49,100
135,"Río Molina antes Junta San Francisco","05720001-4","dga",-33.3733,-70.3961,1158.0,"Temperatura",,0
316,"Río Tolten en Pitrufquen","09430001-0","dga",-38.9699256582574,-72.635884744199,94.0,"Temperatura",,0
227,"La Sexta de Longavi","07352002-9","dga",-36.1128,-71.6156,229.0,"Temperatura",,0
565,"La Pampa","AG198","agromet",-40.860638833,-73.156917,97.0,"Temperatura",17.87,100
569,"Ensenada","AG287","agromet",-41.233333333,-72.516111111,71.0,"Temperatura",18.17,100
322,"Río Cruces Ante Bocatoma Celco","10134004-K","dga",-39.5575,-72.8875,0.0,"Temperatura",,0
1217,"LOS PANGUILES","05744002-3","dga",-33.4386,-71.0256,195.0,"Temperatura",,0
434,"Río Robalo en Puerto Williams","12930001-9","dga",-54.9469,-67.6392,80.0,"Temperatura",,0
807,"Cerro Castillo","AG372","agromet",-51.176975,-72.435811,120.0,"Temperatura",13.62,100
693,"La Rosa – Oeste","AG228","agromet",-34.325,-71.239444444,154.0,"Temperatura",,0
1100,"Miraflores","AG628","agromet",-35.818051,-71.775019,113.0,"Temperatura",25.25,100
263,"BioBio en Rucalhue","08317001-8","dga",-37.7106,-71.9017,261.0,"Temperatura",,0
355,"Simpson Bajo Junta Coyhaique","11317001-8","dga",-45.5517,-72.0681,210.0,"Temperatura",,0
455,"Chorombo Hacienda","330076","dmc",-33.5258,-71.2283,145.0,"Temperatura",,0
1424,"Luis Felipe Edwards - Mantul","AG727","agromet",-35.9298435,-71.7748861,130.0,"Temperatura",23.5,100
1150,"Los Molles [Bocatoma]","CEAZA_LMBT_Los Molles [Bocatoma]","ceaza",-30.746,-70.41923,2543.0,"Temperatura",19.11,100
1305,"Guatin","02500028-5","dga",-22.761111111111113,-68.07277777777777,3155.0,"Temperatura",,0
602,"La Canela","AG386","agromet",-32.364917,-71.153144,162.0,"Temperatura",,0
1218,"MALLARAUCO","05745001-0","dga",-33.5697,-71.1061,180.0,"Temperatura",,0
134,"Pozo Asentamiento Aguila Sur","05715004-1","dga",-33.907777777777774,-70.73611111111111,403.0,"Temperatura",,0
595,"Paihuén","AG278","agromet",-32.37927783,-70.841622,503.0,"Temperatura",22.39,100
1482,"La Colonia","AG778","agromet",-37.288681,-72.59151,113.0,"Temperatura",24.49,100
1197,"VILCUYA","05410006-K","dga",-32.8603,-70.4719,1072.0,"Temperatura",,0
1171,"CAMIÑA","01611001-9","dga",-19.3136,-69.4172,2500.0,"Temperatura",,0
234,"Talca","07378004-7","dga",-35.419444444444444,-71.66055555555556,110.0,"Temperatura",,0
337,"Río Chico Ante Río Chamiza","10432003-1","dga",-41.4392,-72.8183,0.0,"Temperatura",,0
12,"Ticnamar en Angostura","01300009-3","dga",-18.5133,-69.5656,3010.0,"Temperatura",,0
172,"Canal Teno en Km. 13.465","06033009-3","dga",-34.8142,-71.0997,285.0,"Temperatura",,0
1290,"Río Ñuble en Confluencia","08119002-K","dga",-36.63722222222222,-72.45222222222222,20.0,"Temperatura",,0
399,"Puerto Natales","12293001-7","dga",-51.7336,-72.4781,45.0,"Temperatura",,0
125,"Río Maipo en San Alfonso","05704002-5","dga",-33.7347,-70.3008,1092.0,"Temperatura",,0
1361,"Trapén, Puerto Montt","zx:00:00:00:00:46","redmeteo",-41.511119,-73.097581,122.0,"Temperatura",,0
368,"Río Colonia en Nacimiento","11541000-8","dga",-47.3392,-73.1147,146.0,"Temperatura",,0
201,"Melado en Zona Presa","07317003-6","dga",-35.7544,-71.0864,525.0,"Temperatura",,0
281,"Cn Des C El Toro","08374002-7","dga",-37.3656,-71.4786,0.0,"Temperatura",,0
1333,"Sotaquimet","wl:1d:0a:00:eb:0c","redmeteo",-30.63089,-71.12373,280.1,"Temperatura",20.93,100
710,"STA. BRISILA","AG59","agromet",-34.298080556,-71.3238,126.0,"Temperatura",23.05,100
700,"Lolol","AG77","agromet",-34.713611111,-71.629722222,113.0,"Temperatura",24.02,100
1203,"ALGARROBO","05530005-4","dga",-33.4389,-71.6239,130.0,"Temperatura",,0
1189,"LOS LOROS","03430007-0","dga",-27.8317,-70.1119,933.0,"Temperatura",,0
213,"Cn Rest S2","07322005-K","dga",-35.6175,-71.5389,0.0,"Temperatura",,0
1276,"Mejillones","230022","dmc",-23.10917,-70.44056,31.0,"Temperatura",21.97,100
1122,"Punta Colorada","CEAZA_PC_Punta Colorada","ceaza",-29.35411,-71.03286,379.0,"Temperatura",,0
361,"Río Ibañez en Desembocadura","11505001-K","dga",-46.2692,-71.9908,220.0,"Temperatura",,0
845,"Longaví Sur","AG101","agromet",-35.953055556,-71.608055556,167.0,"Temperatura",23.02,100
35,"Captacion de Codelco en Linzor","02105035-0","dga",-22.2318279052731,-68.029177835531,4088.0,"Temperatura",,0
1475,"Las Naranjas","AG770","agromet",-30.8614346,-71.4093676,548.0,"Temperatura",20.87,100
1183,"RIO HUATACONDO EN COPAQUIRE","02113001-K","dga",-20.9333,-68.8833,3540.0,"Temperatura",,0
150,"Río Maipo en Cabimbao","05748001-7","dga",-33.7219,-71.555,35.0,"Temperatura",,0
160,"Estero de la Cadena antes Junta Río Cachapoal","06011001-8","dga",-34.1842,-70.8436,440.0,"Temperatura",,0
33,"Capatacion de Aguas Antofagasta en Toconce","02105033-4","dga",-22.2632178816383,-68.172798065897,0.0,"Temperatura",,0
11,"Belén","01300007-7","dga",-18.4669,-69.5167,3240.0,"Temperatura",,0
1224,"TUTUVEN EMBALSE","07337002-7","dga",-35.8967,-72.3736,172.0,"Temperatura",,0
632,"Casa Rivas (N.C.)","AG218","agromet",-33.506388889,-71.060833333,177.0,"Temperatura",,0
285,"Cn Collao","08375005-7","dga",-37.3022,-71.6467,490.0,"Temperatura",,0
1271,"Las Melosas Ruta de Nieve Fpp","05701010-K","dga",-33.86388888888889,-70.2725,3320.0,"Temperatura",,0
325,"Río Llollelhue en la Union","10313001-8","dga",-40.2667,-73.0833,20.0,"Temperatura",,0
275,"Cn Alto Polcura","08370006-8","dga",-37.2058,-71.2297,1450.0,"Temperatura",,0
940,"Lo Aguirre","07301000-4","dga",-35.9697,-70.5719,2000.0,"Temperatura",,0
1337,"Estación Biológica Senda Darwin, Ancud","zx:00:00:00:00:28","redmeteo",-41.8824927,-73.6759956,65.0,"Temperatura",,0
454,"Talagante","330071","dmc",-33.6736,-70.8475,390.0,"Temperatura",,0
391,"Lago el Toro en Estancia Paine","12285002-1","dga",-51.166666666666664,-72.95,46.0,"Temperatura",,0
872,"San Javier","AG105","agromet",-35.629722222,-71.603888889,162.0,"Temperatura",24.27,100
847,"Pencahue","AG95","agromet",-35.455833333,-71.772222222,66.0,"Temperatura",25.78,100
1159,"La Serena [CEAZA]","CEAZA_LSC_La Serena [CEAZA]","ceaza",-29.915020000000002,-71.24221,90.0,"Temperatura",17.19,100
708,"Ventisquero-Apalta","AG236","agromet",-34.608055556,-71.246944444,256.0,"Temperatura",,0
1384,"Escuela de Artillería Linares","350901","dmc",-35.83694,-71.59278,160.0,"Temperatura",24.32,100
718,"Ninhue","AG175","agromet",-36.398105,-72.395202833,88.0,"Temperatura",26.6,100
291,"Est. Hualqui Desembocadura","08393002-0","dga",-36.9825,-72.9414,30.0,"Temperatura",,0
438,"Escuela Mirasol, Puerto Montt","410027","dmc",-41.479,-72.968,100.0,"Temperatura",18.98,100
912,"Diego Aracena Iquique Ap.","200006","dmc",-20.539722222222224,-70.17861111111111,52.0,"Temperatura",23.51,53
1465,"Montes - Marchigue","AG752","agromet",-34.34059,-71.65213,175.0,"Temperatura",23.36,100
850,"Tres Esquinas","AG83","agromet",-35.144722222,-71.216111111,309.0,"Temperatura",20.82,100
1244,"RIO EXPLORADORES EN NACIMIENTO","11420000-K","dga",-46.50222222222222,-73.15055555555556,150.0,"Temperatura",,0
766,"Gorbea","AG129","agromet",-39.103055556,-72.615277778,110.0,"Temperatura",19.75,100
336,"Río Chamiza Ante Junta Río Chico","10432002-3","dga",-41.4417,-72.8089,8.0,"Temperatura",,0
1108,"Pid-Pid","AG634","agromet",-42.411747,-73.783913,84.0,"Temperatura",18.33,100
1192,"SAN FELIX","03815004-9","dga",-28.9311,-70.4614,1173.0,"Temperatura",,0
79,"Vallenar DGA","03823003-4","dga",-28.5861,-70.7397,420.0,"Temperatura",,0
763,"La Providencia","AG186","agromet",-38.289444,-72.611389,251.0,"Temperatura",19.07,100
148,"Industria Bata","05740008-0","dga",-33.67805555555555,-71.18361111111112,173.0,"Temperatura",,0
737,"Termas de Chillán","AG306","agromet",-36.90361111,-71.41,1716.0,"Temperatura",,0
748,"Punta Parra","AG178","agromet",-36.672393833,-72.964684,194.0,"Temperatura",22.57,100
852,"Rauco","AG91","agromet",-34.925,-71.283055556,208.0,"Temperatura",22.93,100
15,"Río Camarones en Conanoxa","01502002-4","dga",-19.0444,-69.9842,504.0,"Temperatura",,0
751,"Calama Rural","AG153","agromet",-22.471029833,-68.94298,2244.0,"Temperatura",19.57,100
255,"Puente la Junta","08308000-0","dga",-38.0661,-71.3497,755.0,"Temperatura",,0
1272,"Nirivilo","07341002-9","dga",-35.5389,-72.0914,200.0,"Temperatura",,0
446,"El Tololo","300034","dmc",-30.1683,-70.8036,2154.0,"Temperatura",,0
1216,"MELIPILLA","05740005-6","dga",-33.6803,-71.1997,271.0,"Temperatura",,0
798,"Tranapuente","AG192","agromet",-38.690832833,-73.353333,71.0,"Temperatura",16.7,100
753,"Caspana","AG261","agromet",-22.334515,-68.213597,3233.0,"Temperatura",15.63,100
249,"Estero Bellavista en Tomé","08210003-2","dga",-36.6394,-72.9503,7.0,"Temperatura",,0
90,"El Soldado","04700002-5","dga",-32.0067,-70.3214,3290.0,"Temperatura",,0
835,"Jotabeche","AG4","agromet",-27.588611111,-70.244722222,598.0,"Temperatura",,0
818,"Caleta Vitor","AG377","agromet",-18.781479,-70.283902,84.0,"Temperatura",22.9,100
516,"San Julián","AG14","agromet",-30.655277778,-71.318888889,266.0,"Temperatura",20.11,100
483,"Fuentes Martínez, Porvenir Ad.","530005","dmc",-53.1875,-70.3203,25.0,"Temperatura",11.55,100
487,"Santa Carla","AG269","agromet",-39.679571,-72.611389,230.0,"Temperatura",19.2,100
26,"Captacion de Codelco en Inacaliri","02103017-1","dga",-22.0354375007255,-68.0716823224048,4004.0,"Temperatura",,0
823,"Lago Chungará","AG145","agromet",-18.281824,-69.138499833,4564.0,"Temperatura",7.2,100
1139,"Rapel","CEAZA_RPL_Rapel","ceaza",-30.7228,-70.77249,862.0,"Temperatura",22.07,100
448,"Jardín Botánico (ex Parque Fauna), Viña del Mar","330006","dmc",-33.0492,-71.5017,50.0,"Temperatura",16.65,100
723,"Chiguayante","AG171","agromet",-36.91349,-73.035458,24.0,"Temperatura",22.92,100
282,"Río Polcura  A. Desc. Central el Toro","08375001-4","dga",-37.3333,-71.5336,710.0,"Temperatura",,0
1125,"Ovalle [Talhuén]","CEAZA_TLH_Ovalle [Talhuén]","ceaza",-30.592029999999998,-71.24797,292.0,"Temperatura",19.24,100
110,"Canal Colorado en Bocatoma","05404001-6","dga",-32.8347,-70.3533,1391.0,"Temperatura",,0
777,"Renaico","AG115","agromet",-37.726111111,-72.604722222,87.0,"Temperatura",23.15,100
21,"Captacion de Aguas Antofagasta en Lequena","02101004-9","dga",-21.5546001542262,-68.653370487878,0.0,"Temperatura",,0
80,"Río Toro antes Junta Río la Laguna","04302001-3","dga",-29.9711,-70.0928,2165.0,"Temperatura",,0
639,"San José Guayacán","AG302","agromet",-33.61527778,-70.35055556,921.0,"Temperatura",,0
307,"Río Truful en Camino Internacional","09400000-9","dga",-38.8444,-71.6536,520.0,"Temperatura",,0
83,"Elqui en Algarrobal","04320001-1","dga",-29.9953,-70.5867,760.0,"Temperatura",,0
195,"Laguna Invernada","07306000-1","dga",-35.725,-70.775,1317.0,"Temperatura",,0
20,"Loa ant. R. Lequena","02101001-4","dga",-21.6558,-68.6622,3315.0,"Temperatura",,0
752,"Chiu Chiu","AG262","agromet",-22.320236,-68.650542,2558.0,"Temperatura",,0
1366,"Mar Brava, Ancud","zx:00:00:00:00:4c","redmeteo",-41.887755,-73.991643,10.0,"Temperatura",,0
500,"Lago Verde","AG193","agromet",-40.165081,-72.633842833,246.0,"Temperatura",19.72,100
877,"Parral Norte ","AG103","agromet",-36.230277778,-71.732222222,206.0,"Temperatura",22.89,100
928,"Retiro Copihue","360047","dmc",-36.07555555555556,-71.75805555555556,162.0,"Temperatura",21.72,100
829,"Punta Lobos","AG365","agromet",-28.29765,-71.17817,28.0,"Temperatura",,0
866,"Las Lomillas - San Clemente","AG408","agromet",-35.5416389,-71.3182219,340.0,"Temperatura",22.75,100
778,"Perales","AG322","agromet",-38.663889,-72.808889,46.0,"Temperatura",18.43,100
222,"Longaví Quiriquina","07350001-K","dga",-36.2303,-71.4569,449.0,"Temperatura",,0
1428,"La Aurora","AG732","agromet",-33.429661,-71.029152,206.0,"Temperatura",23.37,100
382,"Lago Dickson","12280004-0","dga",-50.8228,-73.1125,200.0,"Temperatura",,0
1345,"Parque Nacional Conguillío","yy:00:00:00:00:34","redmeteo",-38.727589,-71.629769,997.0,"Temperatura",,0
1107,"Isla Chelin","AG638","agromet",-42.589153,-73.532906,53.0,"Temperatura",17.57,100
906,"San Rafael","AG94","agromet",-35.303611111,-71.475833333,151.0,"Temperatura",23.88,100
1344,"Pedro Aguirre Cerda","yy:00:00:00:00:33","redmeteo",-33.493938,-70.66456,530.0,"Temperatura",,0
589,"El Chalaco","AG384","agromet",-32.181267,-70.78492,893.0,"Temperatura",,0
1105,"Taplon","AG644","agromet",-38.83295,-72.506385,128.0,"Temperatura",18.2,100
238,"Claro Rauquen","07379002-6","dga",-35.4525,-71.7333,64.0,"Temperatura",,0
587,"Palquico","AG275","agromet",-32.25702783,-71.14163883,473.0,"Temperatura",22.53,100
147,"Río Mapocho en el Trebal","05737019-K","dga",-33.544999999999995,-70.81722222222221,429.0,"Temperatura",,0
430,"Río Grande en Tierra Del Fuego","12876001-6","dga",-53.8928,-68.8844,100.0,"Temperatura",,0
1481,"Contulmo Urbano","AG776","agromet",-38.018318,-73.230247,41.0,"Temperatura",20.05,100
607,"San Felipe","AG26","agromet",-32.755333,-70.706917,670.0,"Temperatura",26.38,100
1331,"Lonquimay","yy:00:00:00:00:0e","redmeteo",-38.446,-71.252,918.0,"Temperatura",,0
340,"Puelo en Carrera Basilio","10523002-8","dga",-41.6044,-72.2064,0.0,"Temperatura",,0
397,"Río Serrano en Desembocadura","12289001-5","dga",-51.3328,-73.1092,25.0,"Temperatura",,0
202,"Embalse Melado","07317004-4","dga",-35.76138888888889,-71.09194444444444,675.0,"Temperatura",,0
1274,"Tres Quebradas","CEAZA_TQ_Tres Quebradas","ceaza",-31.47222,-70.61349,2801.0,"Temperatura",,0
1307,"Río Lebu en las Corrientes","08720001-9","dga",-37.60166666666667,-73.48777777777778,60.0,"Temperatura",,0
782,"C. Llollinco","AG182","agromet",-38.976944,-72.997777833,46.0,"Temperatura",18.13,100
942,"Río Renegado en Invernada","08130001-1","dga",-36.8606,-71.6253,710.0,"Temperatura",,0
153,"Laguna el Yeso","06000004-2","dga",-34.4078,-70.21,2140.0,"Temperatura",,0
1410,"Copayapu","AG702","agromet",-27.456639,-70.264139,469.0,"Temperatura",,0
1210,"LAGUNA ACULEO","05716005-5","dga",-33.8858,-70.8775,375.0,"Temperatura",,0
1111,"La Florida, La Serena Ad.","290004","dmc",-29.9175,-71.20333,142.0,"Temperatura",16.96,100
1341,"DADA DE BAJA: Pitrufquén - Colegio Madres Dominicas","yy:00:00:00:00:30","redmeteo",-38.985478,-72.6369,86.0,"Temperatura",,0
772,"Nueva Imperial ","AG126","agromet",-38.761388889,-72.8775,43.0,"Temperatura",20.58,100
121,"Río Maipo en Queltehues","05701009-6","dga",-3.5916666666666663,-7.025555555555555,1317.0,"Temperatura",,0
793,"Allipén","AG423","agromet",-38.9997222,-72.5210833,127.0,"Temperatura",18.93,100
124,"Laguna Negra","05703009-7","dga",-33.66583333333333,-70.10777777777777,2780.0,"Temperatura",,0
1202,"SAN ANTONIO (PTA. PANUL)","05530002-K","dga",-33.5747,-71.625,84.0,"Temperatura",,0
1394,"San José de la Mariquina (CEHUMet)","zx:00:00:00:00:62","redmeteo",-39.5,-73.01,7.0,"Temperatura",,0
364,"Río Nef antes Junta Estero el Revalse","11532000-9","dga",-47.1378,-73.0869,281.0,"Temperatura",,0
582,"Emiliana","AG216","agromet",-33.361388889,-71.309166667,309.0,"Temperatura",,0
54,"Toconao Quebrada 4","02500026-9","dga",-23.1531,-67.8983,3465.0,"Temperatura",,0
208,"Cn Evac. C Pehuenche","07321005-4","dga",-35.7275,-71.1667,0.0,"Temperatura",,0
1280,"Victoria (Reg.)","380063","dmc",-38.22889,-72.33889,336.0,"Temperatura",19.81,100
1134,"Pichasca","CEAZA_PICHA_Pichasca","ceaza",-30.41323,-70.90276999999999,670.0,"Temperatura",21.68,100
646,"William Fevre","AG219","agromet",-33.671388889,-70.581666667,666.0,"Temperatura",20.35,100
75,"El Transito","03806002-3","dga",-28.8731,-70.2822,1100.0,"Temperatura",,0
1371,"Luis Felipe Edwards-Las Rosas","AG694","agromet",-35.889749,-71.856565,120.0,"Temperatura",,0
348,"Río Palena Bajo Junta Rosselot","11040001-2","dga",-43.8189,-72.3833,40.0,"Temperatura",,0
846,"San Pedro-Pencahue","AG253","agromet",-35.333888889,-71.769166667,69.0,"Temperatura",24.53,100
18,"Quebrada Tar. Sibaya","01730007-5","dga",-19.7831,-69.1433,2830.0,"Temperatura",,0
1115,"Las Vizcachas Aguas Andinas","330117","dmc",-33.59611,-70.54222,730.0,"Temperatura",,0
3,"Parinacota Ex Endesa","01020017-2","dga",-18.2042,-69.2683,4420.0,"Temperatura",,0
911,"Cerro Sombrero, Arica","180042","dmc",-18.5125,-70.26555555555555,122.0,"Temperatura",23.6,100
1153,"La Laguna [Elqui]","CEAZA_LAGEL_La Laguna [Elqui]","ceaza",-30.20311,-70.03721999999999,3209.0,"Temperatura",16.33,100
1383,"Punta Lengua de Vaca","CEAZA_PLV_Punta Lengua de Vaca","ceaza",-30.244859,-71.633063,17.0,"Temperatura",,0
28,"Río Loa en Vado Santa Barbara","02104013-4","dga",-21.9719,-68.6083,3027.0,"Temperatura",,0
204,"Armerillo","07320002-4","dga",-35.7011,-71.0772,492.0,"Temperatura",,0
1219,"CERRILLOS DE LEYDA","05748003-3","dga",-33.6344,-71.5106,195.0,"Temperatura",,0
1378,"Pirque","yy:00:00:00:00:55","redmeteo",-33.632903,-70.552158,690.0,"Temperatura",23.54,100
1473,"Fundo el Maitén, Paillaco","400060","dmc",-40.08361,-72.65889,194.0,"Temperatura",,0
1365,"Pitrufquén - Colegio Madres Dominicas (estacion DAVIS)","wl:1d:0a:01:1f:f7","redmeteo",-38.985478,-72.6369,86.0,"Temperatura",,0
1212,"QUEBRADA RAMON EN RECINTO EMOS","05730008-6","dga",-33.4331,-70.5142,846.0,"Temperatura",,0
329,"Río Forrahue en Río Negro","10355003-3","dga",-40.7956,-73.2144,52.0,"Temperatura",,0
113,"Pozo Martinez","05410023-K","dga",-32.776944444444446,-70.71472222222222,0.0,"Temperatura",,0
1332,"Tiltil","wl:1d:0a:00:4b:ac","redmeteo",-33.077246944904,-70.925032186509,590.1,"Temperatura",27.18,100
295,"Estero Plegarias antes de Jta Río Curanilahue","08700003-6","dga",-37.4878,-73.3442,149.0,"Temperatura",,0
1431,"El Villorrio","AG730","agromet",-33.562443,-70.875305,399.0,"Temperatura",23.57,100
149,"Estero Puangue en Ruta 78","05746001-6","dga",-33.6614,-71.3372,93.0,"Temperatura",,0
613,"Casa Marín","AG215","agromet",-33.524444444,-71.545555556,28.0,"Temperatura",,0
1429,"Chorrillos","AG740","agromet",-33.34368,-70.8185,477.0,"Temperatura",25.34,100
811,"Cerro Blanco","AG309","agromet",-18.575,-70.07,521.0,"Temperatura",21.44,100
1400,"Catapilco","AG279","agromet",-32.56033283,-71.311806,81.0,"Temperatura",18.44,100
1474,"Liceo Polivalente San Nicolás","360097","dmc",-36.50556,-72.21944,118.0,"Temperatura",25.27,100
572,"Octay","AG200","agromet",-40.957155833,-72.885495,177.0,"Temperatura",19.13,100
417,"Penitente Alto","12620000-5","dga",-52.2092,-71.6806,290.0,"Temperatura",,0
1294,"Cerro la Silla, observatorio astronómico","290013","dmc",-29.25833,-70.73444,2377.0,"Temperatura",19.72,100
529,"Combarbalá","AG16","agromet",-31.188333333,-70.998888889,934.0,"Temperatura",25.5,100
618,"Rinconada","AG25","agromet",-32.837055556,-70.692527778,721.0,"Temperatura",21.98,100
1102,"El Vergel","AG646","agromet",-37.8278098,-72.6596649,78.0,"Temperatura",22.97,100
1377,"Quilitapia","yy:00:00:00:00:54","redmeteo",-31.177063,-71.160981,827.0,"Temperatura",23.05,100
176,"Estero Chimbarongo Bajo Embalse Convento Viejo","06034022-6","dga",-34.7647,-71.1372,245.0,"Temperatura",,0
315,"Río Tolten en Coipue","09423001-2","dga",-39.1,-72.3833,200.0,"Temperatura",,0
1447,"Glaciar Unión","950008","dmc",-79.76833,-82.91139,768.0,"Temperatura",,0
1313,"Ajial de Quiles","AG661","agromet",-30.920303,-71.3841,461.0,"Temperatura",18.97,100
590,"El Sobrante","AG379","agromet",-32.228794,-70.799309,772.0,"Temperatura",,0
1463,"Cerro Tres Puntas (Refugio Andino)","cr2_01","estaciones_andinas_cr2",-33.318,-70.233,3658.0,"Temperatura",9.45,100
919,"Monte Patria, Municipalidad","300047","dmc",-30.698333333333334,-70.95777777777778,406.0,"Temperatura",23.2,100
920,"Llay Llay, Las Peñas","320045","dmc",-32.88138888888889,-70.91305555555556,436.0,"Temperatura",,0
571,"Huyar Alto","AG197","agromet",-42.403919,-73.568191833,157.0,"Temperatura",17.83,100
52,"Paso Sico","02450000-4","dga",-23.8217,-67.44,4295.0,"Temperatura",,0
353,"Coyhaique","11316003-9","dga",-45.5739,-72.0286,343.0,"Temperatura",,0
558,"Colegual","AG196","agromet",-41.221842833,-73.259855833,176.0,"Temperatura",17.42,100
1364,"San Miguel","zx:00:00:00:00:4a","redmeteo",-33.506688,-70.650813,580.0,"Temperatura",26.48,100
626,"La Junta","AG392","agromet",-43.916933,-72.387343,106.0,"Temperatura",16.22,100
922,"Zapallar Catapilco","320063","dmc",-32.561388888888885,-71.29777777777778,81.0,"Temperatura",17.73,100
1248,"LAGO GENERAL CARRERA EN PUERTO GUADAL","11523002-6","dga",-46.8411,-72.6975,205.0,"Temperatura",,0
1461,"Curacaví Norte","yy:00:00:00:00:6f","redmeteo",-33.3288113,-71.1274309,315.0,"Temperatura",25.48,100
1304,"Lago Villarrica en Sector la Poza","09420007-5","dga",-39.276666666666664,-71.97694444444444,0.0,"Temperatura",,0
1402,"San Antonio de Duqueco","yy:00:00:00:00:64","redmeteo",-37.57,-72.02,214.0,"Temperatura",20.87,100
1343,"Entre Lagos","yy:00:00:00:00:32","redmeteo",-40.683688,-72.59968,200.0,"Temperatura",,0
834,"Tranque Lautaro","AG3","agromet",-27.975583333,-70.0,1133.0,"Temperatura",26.53,100
692,"Peumo Norte Ex Las Cabras ","AG71","agromet",-34.326944444,-71.258888889,144.0,"Temperatura",23.81,100
935,"Río Copiapo en Ciudad de Copiapo","03450001-0","dga",-27.365555555555556,-70.34083333333332,0.0,"Temperatura",,0
903,"La Cruz","AG33","agromet",-32.8,-71.2,249.0,"Temperatura",19.46,100
757,"Socaire","AG156","agromet",-23.590585833,-67.890062833,3272.0,"Temperatura",23.03,100
1258,"RIO AZOPARDO EN DESEMBOCADURA","12825002-6","dga",-54.5028,-68.8244,32.0,"Temperatura",,0
71,"Portezuelo el Gaucho","03800000-4","dga",-28.62638888888889,-70.04722222222222,4000.0,"Temperatura",,0
38,"Captacion de Aguas Antofagasta en Puente Negro","02110020-K","dga",-22.4473737936649,-68.902280852727,0.0,"Temperatura",,0
951,"Los Espinos","AG623","agromet",-32.8901667,-70.3821388,1190.0,"Temperatura",26.15,100
163,"Laguna los Cristales","06013008-6","dga",-34.5606,-70.5097,2343.0,"Temperatura",,0
621,"Olmué","AG37","agromet",-33.021944444,-71.186388889,151.0,"Temperatura",19.51,100
118,"Rodelillo","05510001-2","dga",-33.0503,-71.5833,110.0,"Temperatura",,0
1308,"Río Huemules en Glaciar Steffen","11480000-7","dga",-73.67333333333333,-47.5425,23.0,"Temperatura",,0
354,"Coyhaique Alto","11316004-7","dga",-45.4803,-71.6044,730.0,"Temperatura",,0
578,"Cuncumén","AG559","agromet",-33.736215,-71.421579,172.0,"Temperatura",19.16,100
248,"Río Itata en Paso Hondo","08140002-4","dga",-36.6261,-72.4892,26.0,"Temperatura",,0
817,"Colonia JF Lluta Bajo","AG146","agromet",-18.413709833,-70.206109833,225.0,"Temperatura",22.6,100
356,"Río Blanco antes Junta Río Aysen","11337001-7","dga",-45.4,-72.6,21.0,"Temperatura",,0
914,"Ollagüe","210901","dmc",-21.224166666666665,-68.25583333333333,3703.0,"Temperatura",15.23,100
191,"Laguna del Maule","07300000-9","dga",-36.025,-70.55,2180.0,"Temperatura",,0
713,"Coltauco","AG69","agromet",-34.237777778,-71.005,305.0,"Temperatura",24.01,100
145,"Mapocho Rinconada  de Maipu","05737002-5","dga",-33.4961,-70.8167,440.0,"Temperatura",,0
775,"Puala","AG315","agromet",-39.381944,-71.5725,388.0,"Temperatura",19.41,100
771,"Sta. Adela","AG191","agromet",-38.756110833,-72.891389,45.0,"Temperatura",18.79,100
1404,"El Melon","yy:00:00:00:00:66","redmeteo",-32.69389,-71.20983,245.0,"Temperatura",21.19,100
1338,"Nancagua","yy:00:00:00:00:29","redmeteo",-34.658317,-71.268916,182.0,"Temperatura",24.56,100
1118,"El Tepual  Puerto Montt Ap.","410005","dmc",-41.435,-73.08472,85.0,"Temperatura",17.88,100
402,"Cordillera Riesco","12449002-2","dga",-52.8425,-71.7642,456.0,"Temperatura",,0
1443,"Los Lagos (CEHUMet)","zx:00:00:00:00:67","redmeteo",-39.87,-72.81,25.0,"Temperatura",25.1,100
1188,"IGLESIA COLORADA","03414002-2","dga",-28.1572,-69.8808,1546.0,"Temperatura",,0
874,"Villa Alegre","AG104","agromet",-35.696111111,-71.682222222,124.0,"Temperatura",24.36,100
1387,"La Calera","yy:00:00:00:00:5b","redmeteo",-32.79,-71.2,216.0,"Temperatura",19.94,100
1112,"Pudahuel Santiago","330021","dmc",-33.39194,-70.79639,482.0,"Temperatura",25.72,100
371,"Caleta Tortel","11546001-3","dga",-47.7997,-73.5358,10.0,"Temperatura",,0
1432,"Santa Amelia","AG734","agromet",-33.668744,-70.912195,354.0,"Temperatura",23.61,100
783,"Huiscapi","AG316","agromet",-39.263333,-72.398889,262.0,"Temperatura",18.43,100
809,"Puro Chile - Lluta medio","AG148","agromet",-18.452168,-70.067102,564.0,"Temperatura",20.6,100
934,"Copiapó en La Puerta","03431001-7","dga",-27.8044,-70.1269,915.0,"Temperatura",,0
1281,"El Jote","CEAZA_EJT_El Jote","ceaza",-30.40527,-70.27948,3660.0,"Temperatura",12.71,100
605,"La Patagua","AG387","agromet",-32.523449,-71.177979,183.0,"Temperatura",,0
230,"Ancoa El Morro","07355002-5","dga",-35.9086,-71.2981,402.0,"Temperatura",,0
14,"Río Codpa en Cala-cala","01410004-0","dga",-18.8269,-69.6669,1745.0,"Temperatura",,0
1477,"Santa Rita - Alhué","AG765","agromet",-34.028,-71.1429,154.0,"Temperatura",23.93,100
665,"HUELQUEN","AG47","agromet",-33.862083333,-70.639194444,433.0,"Temperatura",19.18,100
848,"Lontue","AG92","agromet",-35.049722222,-71.248055556,230.0,"Temperatura",,0
603,"La Higuera","AG272","agromet",-32.49269683,-71.15288083,133.0,"Temperatura",,0
442,"Universidad Católica del Norte, Antofagasta","230002","dmc",-23.6789,-70.4097,31.0,"Temperatura",21.68,100
381,"Río Paine en Parque Nacional 2","12280002-4","dga",-50.9603,-72.7925,90.0,"Temperatura",,0
1114,"Arrayán Aguas Andinas","330116","dmc",-33.33611,-70.4575,1008.0,"Temperatura",,0
1127,"La Serena [El Romeral]","CEAZA_5_La Serena [El Romeral]","ceaza",-29.75406,-71.25744,162.0,"Temperatura",17.09,100
671,"El Colorado","AG300","agromet",-33.35,-70.29361111,2746.0,"Temperatura",,0
436,"Puerto Navarino","12930004-3","dga",-54.9256,-68.3236,10.0,"Temperatura",,0
712,"Nancagua 2","AG75","agromet",-34.660833333,-71.283611111,188.0,"Temperatura",23.27,100
405,"San Gregorio","12530001-4","dga",-52.5664,-70.0706,3.0,"Temperatura",,0
907,"Faja Maisan","AG617","agromet",-39.071148,-72.92198,55.0,"Temperatura",17.06,95
889,"Yerbas Buenas","AG97","agromet",-35.743888889,-71.573055556,150.0,"Temperatura",21.89,100
491,"Las Lomas","AG266","agromet",-39.700929,-73.014793,25.0,"Temperatura",18.66,100
217,"Perquilauquen San Manuel","07330001-0","dga",-36.3758,-71.6233,266.0,"Temperatura",,0
1167,"RIO LAUCA EN JAPU (O EN EL LIMITE)","01021001-1","dga",-18.5833,-69.0467,3907.0,"Temperatura",,0
562,"Los Canelos","AG199","agromet",-41.481326,-73.474378,108.0,"Temperatura",18.4,100
419,"Villa Tehuelche","12622002-2","dga",-52.4414,-71.4022,190.0,"Temperatura",,0
49,"Quebrada Farellones","02240004-5","dga",-23.6144,-70.3703,185.0,"Temperatura",,0
937,"Isla de Pascua","05610001-6","dga",-27.13361111111111,-109.3517746,0.0,"Temperatura",,0
873,"J. Bouchon","AG241","agromet",-35.569166667,-71.995277778,174.0,"Temperatura",22.98,100
581,"Casablanca","AG38","agromet",-33.320833333,-71.437222222,263.0,"Temperatura",19.75,100
378,"Glaciar Tempano","12000000-4","dga",-48.83555555555556,-74.18305555555555,20.0,"Temperatura",,0
620,"Errazuriz","AG213","agromet",-32.898611111,-71.351666667,116.0,"Temperatura",,0
327,"Río Rahue en Desague Lago Rupanco","10340001-5","dga",-40.7889,-72.6889,130.0,"Temperatura",,0
836,"Hornitos","AG5","agromet",-27.728888889,-70.196666667,769.0,"Temperatura",23.04,100
199,"Maule b Bt. Maule C. Pehuenche","07308002-9","dga",-35.7728,-71.0019,0.0,"Temperatura",,0
1143,"UCN Guayacan","CEAZA_UCNG_UCN Guayacan","ceaza",-29.96663,-71.35284,1.0,"Temperatura",,0
1194,"LA LAGUNA EMBALSE","04301005-0","dga",-30.2033,-70.0422,3150.0,"Temperatura",,0
1414,"Imperial Alto","AG716","agromet",-28.613677,-70.709382,483.0,"Temperatura",20.33,100
579,"Ventisquero - Leyda","AG367","agromet",-33.68548333,-71.54943056,221.0,"Temperatura",17.42,100
182,"Teno después de Junta","07104002-K","dga",-34.9961,-70.8206,647.0,"Temperatura",,0
420,"Monte Aymond","12680001-0","dga",-52.1644,-69.6078,160.0,"Temperatura",,0
1179,"RIO SALADO A. J. CURTI","02105001-6","dga",-22.2792,-68.2428,3067.0,"Temperatura",,0
1359,"Quintero","yy:00:00:00:00:43","redmeteo",-32.785553,-71.534603,42.0,"Temperatura",17.65,100
884,"Cauquenes","AG164","agromet",-35.955973,-72.289938,168.0,"Temperatura",26.25,100
398,"Río Serrano en Desague Lago Del Toro","12289002-3","dga",-51.2,-72.9333,30.0,"Temperatura",,0
563,"Río Negro","AG140","agromet",-40.764722222,-73.151944444,82.0,"Temperatura",18.71,100
666,"Santa Carolina","AG249","agromet",-33.599722222,-70.649722222,618.0,"Temperatura",,0
490,"MAFIL","AG132","agromet",-39.631388889,-72.948333333,30.0,"Temperatura",18.55,100
228,"Canal Maitenes en Bocatoma","07352004-5","dga",-36.0733,-71.6972,0.0,"Temperatura",,0
162,"Claro Hac. Las Nieves","06013001-9","dga",-34.4922,-70.7028,720.0,"Temperatura",,0
1239,"MARIN BALMACEDA","11043001-9","dga",-43.7717,-72.9547,10.0,"Temperatura",,0
380,"Fiordo Amalia","12210000-6","dga",-50.961111111111116,-73.76777777777778,30.0,"Temperatura",,0
258,"Pangue en Captación","08313000-8","dga",-37.8986,-71.5806,550.0,"Temperatura",,0
484,"Escuela Alberto Hurtado","530008","dmc",-53.1392,-70.9167,60.0,"Temperatura",10.53,100
468,"General Bernardo O'Higgins, Chillán Ad.","360011","dmc",-36.5872,-72.04,151.0,"Temperatura",24.39,100
469,"Termas de Chillán","360042","dmc",-36.9036,-71.41,1708.0,"Temperatura",19.03,100
800,"Curacautín-San Luis","AG190","agromet",-38.401667,-71.9025,566.0,"Temperatura",17.9,100
34,"Captaciones Codelco en Salado-hojalar","02105034-2","dga",-22.2815459067769,-68.2353060926223,3086.0,"Temperatura",,0
157,"Cachapoal Pte Termas C","06008005-4","dga",-34.25,-70.5667,700.0,"Temperatura",,0
515,"Recoleta","AG13","agromet",-30.490916667,-71.165777778,403.0,"Temperatura",23.12,54
93,"Río Choapa en Salamanca","04711001-7","dga",-31.8117,-70.9303,500.0,"Temperatura",,0
810,"Azapa2","AG2","agromet",-18.520444444,-70.232666667,214.0,"Temperatura",23.14,100
638,"Til til","AG41","agromet",-33.121333333,-70.834777778,550.0,"Temperatura",26.54,100
526,"Los Vilos - Quebrachar","AG393","agromet",-31.8603889,-71.4395833,66.0,"Temperatura",18.33,100
896,"Toconao","AG157","agromet",-23.1905,-68.007169,2476.0,"Temperatura",22.78,100
773,"San Rafael","AG519","agromet",-38.070667,-72.724176,172.0,"Temperatura",20.88,100
918,"Ovalle Escuela Agrícola","300024","dmc",-30.58,-71.18666666666667,310.0,"Temperatura",19.71,100
300,"Cholchol en Cholchol","09116001-3","dga",-38.6081,-72.8478,20.0,"Temperatura",,0
223,"Río Bullileo en Santa Filomena","07350002-8","dga",-36.2567,-71.4189,513.0,"Temperatura",,0
754,"Toconao","AG297","agromet",-23.18611111,-68.00555556,2485.0,"Temperatura",,0
105,"Portillo","05401007-9","dga",-32.84444444444445,-70.11083333333333,3000.0,"Temperatura",,0
826,"Visviri","AG152","agromet",-17.594605,-69.477417,4076.0,"Temperatura",11.32,100
856,"Via Wines","AG592","agromet",-35.0904667,-71.177367,304.0,"Temperatura",,0
1329,"Paine","yy:00:00:00:00:08","redmeteo",-33.789576,-70.634902,449.0,"Temperatura",23.69,100
1264,"Arica Oficina","01310018-7","dga",-18.4775,-70.3208,20.0,"Temperatura",,0
804,"Estancia Zenia","AG459","agromet",-53.319496,-69.698147,126.0,"Temperatura",11.01,100
1438,"VP - Curicó","AG743","agromet",-35.023972,-71.151389,250.0,"Temperatura",21.67,100
1479,"Santa Rita - Apalta","AG767","agromet",-34.6094,-71.2854,185.0,"Temperatura",23.43,100
1151,"Estero Derecho","CEAZA_EDER_Estero Derecho","ceaza",-30.38407,-70.41286,3020.0,"Temperatura",15.2,100
1389,"Los Ciruelos (CEHUMet)","zx:00:00:00:00:5d","redmeteo",-39.54,-72.87,13.0,"Temperatura",20.37,100
619,"Quillota","AG32","agromet",-32.892388889,-71.206722222,143.0,"Temperatura",18.84,100
57,"Baquedano","02710002-3","dga",-23.3336,-69.8397,1032.0,"Temperatura",,0
1392,"Valdivia (CEHUMet)","zx:00:00:00:00:60","redmeteo",-39.79,-73.25,6.0,"Temperatura",17.89,100
784,"Vida Nueva","AG433","agromet",-39.1963889,-72.2613611,264.0,"Temperatura",18.1,100
320,"Río Leufucade en Purulon","10133000-1","dga",-39.4781,-72.6908,97.0,"Temperatura",,0
1214,"CALEU","05733007-4","dga",-33.0053,-70.9933,1135.0,"Temperatura",,0
1330,"Papudo","yy:00:00:00:00:09","redmeteo",-32.507882,-71.445437,35.0,"Temperatura",,0
648,"TALAGANTE","AG45","agromet",-33.67325,-70.921138889,344.0,"Temperatura",23.08,100
1266,"Iquique","01820001-5","dga",-20.2153,-70.1361,50.0,"Temperatura",,0
762,"Traiguén","AG123","agromet",-38.357222222,-72.5475,249.0,"Temperatura",19.53,100
687,"Siegel","AG587","agromet",34.525449,-70.887584,352.0,"Temperatura",,0
270,"Río Mulchen en Mulchen","08330001-9","dga",-37.7167,-72.25,120.0,"Temperatura",,0
1464,"Santa Carolina - Llallauquén","AG760","agromet",-34.22344,-71.41124,132.0,"Temperatura",,0
1335,"Punitaqui","wl:1d:0a:00:d0:a7","redmeteo",-30.77895,-71.27168,198.9,"Temperatura",,0
1362,"Temuco sector Estadio G. Becker","yy:00:00:00:00:48","redmeteo",-38.74588,-72.626911,110.0,"Temperatura",19.43,100
413,"Canal de Trasvase Estero Llau-Llau","12586009-5","dga",-53.125,-70.9358,80.0,"Temperatura",,0
250,"Río Andalien Camino a Penco","08220001-0","dga",-36.8167,-73.0333,18.0,"Temperatura",,0
122,"Río Volcan en Queltehues","05702001-6","dga",-33.8056,-70.2089,1365.0,"Temperatura",,0
273,"Río Malleco en Collipulli","08351001-3","dga",-37.9647,-72.4361,153.0,"Temperatura",,0
1440,"VP - Retiro","AG745","agromet",-36.018778,-71.772639,152.0,"Temperatura",23.25,100
744,"Trehualemu Ex - San Ignacio Sur","AG109","agromet",-36.920833333,-71.893333333,374.0,"Temperatura",22.67,100
210,"Cn Maule N Alto P Nevado","07321007-0","dga",-35.7147,-71.1806,0.0,"Temperatura",,0
868,"Rarin","AG293","agromet",-34.765667,-71.956667,22.0,"Temperatura",21.45,100
390,"Cerro Castillo","12284010-7","dga",-51.26,-72.3272,130.0,"Temperatura",,0
867,"Casas Patronales","AG240","agromet",-35.491666667,-71.445555556,206.0,"Temperatura",,0
103,"Alicahue Collihuay","05200001-7","dga",-32.33,-70.7381,780.0,"Temperatura",,0
608,"Curimón","AG290","agromet",-32.799972,-70.700306,698.0,"Temperatura",25.66,100
949,"Río Hollemberg en Desembocadura","12400004-1","dga",-51.9056,-72.4236,14.0,"Temperatura",,0
711,"Rapel ","AG70","agromet",-34.216666667,-71.3,122.0,"Temperatura",24.02,100
685,"Anakena","AG227","agromet",-34.304722222,-70.771666667,393.0,"Temperatura",,0
635,"De Martino","AG222","agromet",-33.581944444,-70.880555556,389.0,"Temperatura",,0
1227,"COLORADO","07378003-9","dga",-35.6381,-71.2606,439.0,"Temperatura",,0
1160,"Canal Lauca Sector las Rejas Km 26","01020019-9","dga",-18.331666666666667,-75.44722222222222,4378.0,"Temperatura",,0
576,"Desagüe Rupanco","AG271","agromet",-40.752634,-72.663894,268.0,"Temperatura",19.18,100
917,"Vicuña, Parque Los Pimientos","300046","dmc",-30.033611111111114,-70.69722222222222,642.0,"Temperatura",22.3,100
310,"Río Turbio en Puente Turbio","09414003-K","dga",-39.29972222222222,-71.89527777777778,300.0,"Temperatura",,0
1408,"Altar de la Virgen","AG712","agromet",-27.99994,-69.98,1147.0,"Temperatura",27.46,100
116,"Pozo Rabuco","05423019-2","dga",-32.86083333333333,-71.11583333333333,0.0,"Temperatura",,0
709,"Lapostolle-Apalta","AG232","agromet",-34.593611111,-71.302222222,237.0,"Temperatura",26.13,100
311,"Río Tolten en Villarica","09420001-6","dga",-39.2667,-72.2333,250.0,"Temperatura",,0
67,"Río Copiapo en Lautaro","03430001-1","dga",-27.9747,-69.9978,1200.0,"Temperatura",,0
384,"Lago Nordenskjoltd","12282000-9","dga",-51.03805555555555,-72.93694444444445,0.0,"Temperatura",,0
774,"Carillanca","AG183","agromet",-38.693055833,-72.417221833,182.0,"Temperatura",17.73,100
423,"Porvenir","12809001-0","dga",-53.2908,-70.37,35.0,"Temperatura",,0
351,"Islas Huichas","11180000-6","dga",-45.1553,-73.5164,6.0,"Temperatura",,0
414,"Magdalena Giglio 2","12586010-9","dga",-53.1397,-71.0561,432.0,"Temperatura",,0
389,"Lago Sarmiento","12284009-3","dga",-51.0108,-72.7106,110.0,"Temperatura",,0
664,"San Pedro","AG54","agromet",-33.891388889,-71.394166667,214.0,"Temperatura",20.9,100
528,"Punitaqui","AG17","agromet",-30.78,-71.256111111,214.0,"Temperatura",20.96,100
661,"Lo Pinto","AG299","agromet",-33.26805556,-70.73222222,510.0,"Temperatura",,0
473,"La Araucanía Ad.","380029","dmc",-38.9342,-72.6533,96.0,"Temperatura",17.97,100
178,"Tinguiririca Los Olmos","06035001-9","dga",-34.4922,-71.3731,223.0,"Temperatura",,0
60,"Universidad de Antofagasta","02900000-K","dga",-23.7017,-70.4208,0.0,"Temperatura",,0
1433,"La Dormida","330193","dmc",-33.04944,-71.00139,1450.0,"Temperatura",23.51,100
1200,"LLIU-LLIU EMBALSE","05427006-2","dga",-33.0986,-71.2144,255.0,"Temperatura",,0
910,"Defensa Civil, Arica","180018","dmc",-18.491111111111113,-70.30138888888888,71.0,"Temperatura",22.24,100
8,"Putre","01202012-0","dga",-18.195,-69.5589,3560.0,"Temperatura",,0
915,"Copiapó Universidad de Atacama","270009","dmc",-27.35888888888889,-70.35333333333332,362.0,"Temperatura",20.38,100
706,"El Tambo","AG163","agromet",-34.470992,-70.986951,249.0,"Temperatura",26.09,100
1199,"QUILLOTA","05426004-0","dga",-32.8958,-71.2092,140.0,"Temperatura",,0
1263,"Lluta Tocontasi","01210001-9","dga",-18.3667,-69.9003,1850.0,"Temperatura",,0
819,"Cuya","AG543","agromet",-19.161922,-70.180968,97.0,"Temperatura",22.9,100
1116,"Carriel Sur, Concepción.","360019","dmc",-36.77833,-73.05083,17.0,"Temperatura",20.79,100
493,"Mariquina","AG131","agromet",-39.620833333,-73.073333333,29.0,"Temperatura",19.07,100
96,"Río Illapel en las Burras","04721001-1","dga",-31.5069,-70.8125,1079.0,"Temperatura",,0
1174,"POROMA","01730017-2","dga",-19.8719,-69.1831,2880.0,"Temperatura",,0
260,"Embalse Pangue","08313002-4","dga",-37.9183,-71.5961,519.0,"Temperatura",,0
471,"Maquehue, Temuco Ad.","380013","dmc",-38.77,-72.6369,86.0,"Temperatura",18.22,100
48,"Quebrada Bonilla","02240003-7","dga",-23.5828,-70.3742,112.0,"Temperatura",,0
401,"Seno Obstrucción","12403000-5","dga",-52.2094,-72.4783,4.0,"Temperatura",,0
256,"Bío Bío Ang. Ralco1","08312000-2","dga",-38.0369,-71.4781,652.0,"Temperatura",,0
1301,"Chiapa","01720006-2","dga",-19.537222222222223,-69.205,3155.0,"Temperatura",,0
1300,"Peldehue Ad.","330163","dmc",-33.11389,-70.68583,683.0,"Temperatura",26.4,100
1372,"Ránquil - Viña de Neira","zx:00:00:00:00:4d","redmeteo",-36.611017,-72.664886,260.0,"Temperatura",24.12,100
480,"Teniente Gallardo, Puerto Natales Ad.","510005","dmc",-51.6672,-72.5289,69.0,"Temperatura",12.96,100
62,"Escuela Hogar Victorino Quinteros Soto","02943002-0","dga",-25.4033,-70.4797,0.0,"Temperatura",,0
97,"Río Illapel en Huintil","04723001-2","dga",-31.5608,-70.9644,775.0,"Temperatura",,0
24,"Captacion de Fcab en Siloli","02103015-5","dga",-22.0271026819169,-68.0408492136483,0.0,"Temperatura",,0
669,"LO HERRERA","AG46","agromet",-33.662888889,-70.765916667,502.0,"Temperatura",18.38,100
81,"Río Turbio en Varillar","04308001-6","dga",-29.9458,-70.5328,890.0,"Temperatura",,0
475,"Isla Teja  (Universidad Austral Valdivia)","390015","dmc",-39.8072,-73.2517,15.0,"Temperatura",,0
317,"Toltén T Schmidt","09437002-7","dga",-39.0144,-73.0828,15.0,"Temperatura",,0
271,"Río Biobio en Coihue","08334001-0","dga",-37.5503,-72.5903,60.0,"Temperatura",,0
822,"Socoroma","AG149","agromet",-18.263888833,-69.607675,3052.0,"Temperatura",14.28,100
932,"Nueva Chaitén","420015","dmc",-42.785,-72.83472222222221,10.0,"Temperatura",18.32,100
1453,"Base Prat - INACH","950014","dmc",-62.47889,-59.66389,1.0,"Temperatura",,0
1282,"Llano de Las Liebres","CEAZA_LLL_Llano de Las Liebres","ceaza",-30.257409999999997,-69.93699000000001,3565.0,"Temperatura",,0
16,"Río Camarones en Chilpe","01502008-3","dga",-18.9431,-69.6197,1565.0,"Temperatura",,0
734,"Guilisasti","AG245","agromet",-37.648333333,-72.216111111,179.0,"Temperatura",,0
236,"Q Colorado Ds Lag Temos","07378012-8","dga",-35.6475,-71.2797,0.0,"Temperatura",,0
478,"Teniente Vidal, Coyhaique Ad.","450004","dmc",-45.5939,-72.1086,310.0,"Temperatura",16.78,100
59,"Quebrada el Toro","02760000-K","dga",-23.6681,-70.3961,89.0,"Temperatura",,0
146,"Mision Corazon de Maria","05737016-5","dga",-33.66833333333333,-70.92222222222223,338.0,"Temperatura",,0
141,"Cerro Calán","05730012-4","dga",-33.395,-70.5367,848.0,"Temperatura",,0
63,"Quebrada Taltal","02943003-9","dga",-25.4033,-70.4797,90.0,"Temperatura",,0
1296,"Canal Melado en C. Hidroelectrica los Hierros I","07317006-0","dga",-35.86055555555556,-71.0675,0.0,"Temperatura",,0
19,"Ollague","02000001-5","dga",-21.2233,-68.2494,3700.0,"Temperatura",,0
4,"Río Guallatire en Guallatire","01021002-K","dga",-18.4931,-69.1494,4280.0,"Temperatura",,0
559,"Remehue","AG203","agromet",-40.522204,-73.063654833,74.0,"Temperatura",18.95,100
203,"Melado en el Salto","07317005-2","dga",-35.8842,-71.0192,730.0,"Temperatura",,0
95,"Río Choapa en Puente Negro","04716004-9","dga",-31.6881,-71.2658,200.0,"Temperatura",,0
460,"San Pablo - DASA","330114","dmc",-33.4422,-70.7467,490.0,"Temperatura",25.85,100
1152,"Hualtatas","CEAZA_HUAL_Hualtatas","ceaza",-31.707320000000003,-70.525,3632.0,"Temperatura",,0
1269,"Vivero Conaf, Illapel","310040","dmc",-31.6325,-71.1525,333.0,"Temperatura",19.81,100
463,"Rancagua, Aeródromo la Independencia","340045","dmc",-34.1758,-70.7794,482.0,"Temperatura",26.08,100
408,"Río Tres Brazos antes Bt. Sendos","12585001-4","dga",-53.2789,-70.9789,0.0,"Temperatura",,0
606,"Valle Hermoso","AG381","agromet",-32.4265,-71.22765,84.0,"Temperatura",,0
1323,"Miraflores Alto","yy:00:00:00:00:01","redmeteo",-33.026599,-71.507067,260.0,"Temperatura",,0
226,"Canal Primera Abajo","07351002-3","dga",-36.05722222222222,-71.70305555555557,0.0,"Temperatura",,0
137,"Río San Francisco antes Junta Estero Yerba Loca","05721016-8","dga",-33.3086,-70.3572,1550.0,"Temperatura",,0
486,"C.M.A. Eduardo Frei Montalva, Antártica","950001","dmc",-62.1997,-58.9642,45.0,"Temperatura",-1.9,100
643,"Morandé - Romeral","AG220","agromet",-33.706388889,-70.772777778,472.0,"Temperatura",,0
597,"SAN ESTEBAN","AG22","agromet",-32.750444444,-70.557583333,952.0,"Temperatura",26.2,100
247,"Río Itata en Balsa Nueva Aldea","08135002-7","dga",-36.65,-72.45,29.0,"Temperatura",,0
1267,"Canela Baja (Liceo Padre José Herde)","310023","dmc",-31.39,-71.41278,343.0,"Temperatura",18.13,100
864,"Lien","AG495","agromet",-35.099146,-71.969797,18.0,"Temperatura",22.73,100
564,"Purranque ","AG138","agromet",-40.879444444,-73.0525,151.0,"Temperatura",17.31,100
82,"Río Claro en Rivadavia","04314002-7","dga",-29.9781,-70.5525,820.0,"Temperatura",,0
107,"Blanco en Bt. C. Aconcagua","05402014-7","dga",-32.975,-70.26277777777777,2029.0,"Temperatura",,0
1340,"La Greda","wl:1d:0a:01:19:e1","redmeteo",-30.72186,-70.87337,522.1,"Temperatura",22.67,100
51,"Paso Jama","02300000-8","dga",-22.9219,-67.7014,4680.0,"Temperatura",,0
1209,"RIO ANGOSTURA EN VALDIVIA DE PAINE","05716001-2","dga",-33.8111,-70.8836,341.0,"Temperatura",,0
792,"Los Quilantos","AG428","agromet",-38.9083333,-72.7982222,72.0,"Temperatura",22.11,100
547,"Tongoy","AG364","agromet",-30.278,-71.56317,0.0,"Temperatura",,0
720,"Cobquecura","AG418","agromet",-36.1245278,-72.7953889,10.0,"Temperatura",20.59,100
1120,"Pan de Azúcar","CEAZA_3_Pan de Azúcar","ceaza",-30.07465,-71.23895,135.0,"Temperatura",,0
112,"Aconcagua San Felipe","05410005-1","dga",-32.7572,-70.7367,650.0,"Temperatura",,0
1375,"Casablanca sector La Playa","yy:00:00:00:00:50","redmeteo",-33.239007,-71.458378,332.0,"Temperatura",20.52,100
445,"Mataveri  Isla de Pascua Ap.","270001","dmc",-27.1606,-109.427,48.0,"Temperatura",22.83,100
644,"Pérez Cruz","AG224","agromet",-33.843055556,-70.619722222,465.0,"Temperatura",24.68,100
886,"Coronel de Maule","AG166","agromet",-36.059091833,-72.477688833,167.0,"Temperatura",25.66,100
451,"Santo Domingo, Ad.","330030","dmc",-33.655,-71.6142,75.0,"Temperatura",16.85,100
768,"Cunco","AG124","agromet",-39.006666667,-72.251388889,230.0,"Temperatura",18.53,100
904,"Puchuncavi","AG388","agromet",-32.754967,-71.343432,178.0,"Temperatura",17.17,100
1409,"Casa Rosada","AG698","agromet",-27.84914,-70.0875,964.0,"Temperatura",26.99,100
698,"Chépica","AG74","agromet",-34.738611111,-71.258055556,204.0,"Temperatura",25.39,100
1342,"Cordillera de Piuchén, Chiloé","yy:00:00:00:00:31","redmeteo",-42.270312,-73.91806,768.0,"Temperatura",,0
246,"Río Diguillin en San Lorenzo","08130002-K","dga",-36.9244,-71.5756,727.0,"Temperatura",,0
1302,"Chuzmiza","01730020-2","dga",-19.685555555555556,-69.18472222222222,3400.0,"Temperatura",,0
715,"Montes","AG231","agromet",-34.340555556,-71.652222222,175.0,"Temperatura",,0
1334,"Agua Amarilla","wl:1d:0a:00:e3:22","redmeteo",-30.84369,-70.68702,960.1,"Temperatura",23.65,100
627,"Aysén","AG142","agromet",-45.431944444,-72.714444444,15.0,"Temperatura",16.96,100
1198,"ESTERO POCURO EN EL SIFON","05411001-4","dga",-32.9164,-70.5403,1168.0,"Temperatura",,0
1350,"Curacaví","yy:00:00:00:00:3a","redmeteo",-33.376688,-71.17731,243.0,"Temperatura",,0
859,"Viñedos Puertas","AG239","agromet",-34.986944444,-71.279722222,188.0,"Temperatura",,0
1469,"Santa Carolina - San Francisco","AG762","agromet",-36.06524,-72.4629,170.0,"Temperatura",23.91,100
253,"Lonquimay","08304004-1","dga",-38.4536,-71.3742,931.0,"Temperatura",,0
699,"Hidango","AG260","agromet",-34.1,-71.8,303.0,"Temperatura",21.92,100
196,"Río Cipreses en Dasague Laguna la Invernada","07306001-K","dga",-35.7381,-70.7778,1300.0,"Temperatura",,0
174,"Convento Viejo","06034003-K","dga",-34.7694,-71.1331,239.0,"Temperatura",,0
828,"Alto del Carmen","AG9","agromet",-28.768166667,-70.449222222,820.0,"Temperatura",24.87,100
1349,"Quilpué Centro","yy:00:00:00:00:39","redmeteo",-33.04811,-71.42641,140.0,"Temperatura",,0
1462,"Laguna de Aculeo","yy:00:00:00:00:70","redmeteo",-33.875304,-70.8811961,365.0,"Temperatura",,0
459,"El Paico","330113","dmc",-33.7064,-71.0081,275.0,"Temperatura",22.02,100
129,"Glaciar Olivares Gamma","05706002-6","dga",-33.152499999999996,-70.15083333333334,3628.0,"Temperatura",,0
857,"Tutuquen","AG291","agromet",-34.961611,-71.315861,181.0,"Temperatura",23.33,100
1117,"Rucamanque-UFRO","380032","dmc",-38.66083,-72.61,344.0,"Temperatura",18.49,98
802,"5 de enero","AG471","agromet",-52.432478,-70.360583,146.0,"Temperatura",10.86,100
296,"Cañete","08821005-0","dga",-37.7983,-73.3914,78.0,"Temperatura",,0
276,"Laguna de la Laja","08370007-6","dga",-37.36666666666667,-71.36666666666666,1330.0,"Temperatura",,0
820,"Camarones","AG281","agromet",-19.0,-69.9,892.0,"Temperatura",21.94,100
839,"Freirina","AG612","agromet",-28.5066389,-71.10372222,92.0,"Temperatura",19.44,100
366,"Baker en Angostura Chacabuco","11536004-3","dga",-47.1414,-72.7258,160.0,"Temperatura",,0
235,"Cn Maule N b Pte. Centinela","07378011-K","dga",-35.6358,-71.2694,470.0,"Temperatura",,0
427,"Río Condor","12821000-8","dga",-53.9964,-70.0781,10.0,"Temperatura",,0
261,"Puente Nitrao","08314000-3","dga",-37.69638888888888,-71.28999999999999,867.0,"Temperatura",,0
853,"Parral","AG102","agromet",-36.213333333,-71.7375,204.0,"Temperatura",22.46,100
539,"El Trapiche","AG616","agromet",-29.3718611,-71.11608333,281.0,"Temperatura",18.65,100
214,"Cn Rest S3","07322006-8","dga",-35.6169,-71.5392,0.0,"Temperatura",,0
799,"Quiripio","AG188","agromet",-38.639721833,-73.244167,292.0,"Temperatura",18.12,100
472,"Lonquimay","380018","dmc",-38.455,-71.3619,912.0,"Temperatura",,0
717,"Sta Rosa","AG179","agromet",-36.535195,-71.916433833,188.0,"Temperatura",23.26,100
242,"Ñuble en San Fabian","08106002-9","dga",-36.5856,-71.5256,450.0,"Temperatura",,0
416,"Río Rubens en Ruta N 9","12600001-4","dga",-52.03,-71.9414,180.0,"Temperatura",,0
130,"Valle Olivares","05706003-4","dga",-33.1869,-70.1122,2787.0,"Temperatura",,0
292,"BioBio Desembocadura","08394001-8","dga",-36.8386,-73.0619,16.0,"Temperatura",,0
433,"Lago Deseado","12879000-4","dga",-54.3378,-68.8242,170.0,"Temperatura",,0
674,"Olivar Alto","AG66","agromet",-34.203055556,-70.824166667,454.0,"Temperatura",24.44,100
1445,"Calfuco (CEHUMet)","zx:00:00:00:00:69","redmeteo",-39.78,-73.39,26.0,"Temperatura",,0
206,"Maule en Armerillo","07321002-K","dga",-35.7061,-71.1139,470.0,"Temperatura",,0
108,"Río Blanco antes Junta Río de los Leones","05402015-5","dga",-32.98,-70.2547,2050.0,"Temperatura",,0
570,"Quilacahuin","AG288","agromet",-40.3,-73.3,116.0,"Temperatura",19.98,100
286,"Cn Mirrihue","08375006-5","dga",-37.3256,-71.6489,500.0,"Temperatura",,0
85,"Vega Negra","04511004-4","dga",-30.9033,-70.5158,3600.0,"Temperatura",,0
1119,"Guandacol","CEAZA_HDC_Guandacol","ceaza",-30.54363,-70.3329,2983.0,"Temperatura",16.14,100
183,"Palos en Junta con Colorado","07115001-1","dga",-35.2744,-71.0156,600.0,"Temperatura",,0
732,"Quillón","AG113","agromet",-36.745,-72.504722222,64.0,"Temperatura",25.2,100
25,"Captacion de Codelco en Colana","02103016-3","dga",-21.9437708382539,-68.1725181243581,4070.0,"Temperatura",,0
575,"Huacamapu","AG555","agromet",-40.659175,-73.491723,158.0,"Temperatura",18.27,100
1155,"El Tapado","CEAZA_TPF_El Tapado","ceaza",-30.1583,-69.90818,4306.0,"Temperatura",,0
1157,"Puerto Varas ESSAL","410040","dmc",-41.32444,-72.98278,70.0,"Temperatura",18.47,100
1319,"Tenaún","AG679","agromet",-42.312675,-73.399902,134.0,"Temperatura",17.89,100
1407,"Mayorquina","AG700","agromet",-27.337762,-70.567188,214.0,"Temperatura",20.33,100
832,"Amolana Copiapo 2","AG283","agromet",-28.0,-70.0,1271.0,"Temperatura",25.17,100
435,"Robalo Alto","12930003-5","dga",-54.9769,-67.6744,360.0,"Temperatura",,0
1243,"PUERTO CHACABUCO","11400001-9","dga",-45.4644,-72.8178,19.0,"Temperatura",,0
1311,"Chapiquiña","AG658","agromet",-18.389472,-69.539417,3319.0,"Temperatura",13.88,100
722,"Los Coligues Ex - Chillan Viejo","AG111","agromet",-36.629166667,-72.233333333,84.0,"Temperatura",25.54,100
111,"Aconcagua Chacabuquito","05410002-7","dga",-32.8503,-70.5094,950.0,"Temperatura",,0
1422,"Luis Felipe Edwards - Leyda","AG723","agromet",-33.6711073,-71.5370882,172.0,"Temperatura",16.79,100
409,"Leñadura Alta","12585003-0","dga",-53.2325,-71.1178,400.0,"Temperatura",,0
1193,"RIO HUASCO EN ALGODONES","03820001-1","dga",-28.7306,-70.5067,734.0,"Temperatura",,0
1110,"Arroyo el Gato","AG626","agromet",-45.162902,-71.943627,500.0,"Temperatura",14.99,100
1318,"Collimallin","AG676","agromet",-38.606698,-72.701057,55.0,"Temperatura",18.71,100
1368,"Chacalluta, Arica Ap.","180005","dmc",-18.35556,-70.34028,50.0,"Temperatura",22.61,100
485,"Guardia Marina Zañartu, Pto Williams Ad.","550001","dmc",-54.9317,-67.6156,15.0,"Temperatura",11.34,100
53,"Toconao Quebrada 1","02500025-0","dga",-23.214444444444442,-67.81027777777777,3979.0,"Temperatura",,0
681,"Mostazal","AG63","agromet",-34.001666667,-70.701666667,491.0,"Temperatura",25.82,100
1154,"El Polvo","CEAZA_EPLV_El Polvo","ceaza",-31.18314,-70.5848,2561.0,"Temperatura",,0
495,"La Union","AG136","agromet",-40.316666667,-73.024166667,26.0,"Temperatura",19.76,100
87,"Río Grande en Puntilla San Juan","04523002-3","dga",-30.7047,-70.9244,420.0,"Temperatura",,0
1185,"RIO SAN PEDRO EN CUCHABRACHI","02510001-8","dga",-22.8225,-68.1983,2619.0,"Temperatura",,0
466,"Portezuelo-Codelco","340093","dmc",-34.1983,-70.5792,1185.0,"Temperatura",,0
897,"La Cachina","AG619","agromet",-25.433987,-70.453243,215.0,"Temperatura",15.57,100
1247,"CHILE CHICO","11521002-5","dga",-46.5436,-71.7089,219.0,"Temperatura",,0
787,"Sta Inés","AG317","agromet",-38.504722,-72.343611,262.0,"Temperatura",18.47,100
1450,"Gabriel Gonzalez Videla - INACH","950011","dmc",-64.82389,-62.85778,1.0,"Temperatura",,0
456,"El Colorado","330077","dmc",-33.35,-70.2936,2750.0,"Temperatura",16.38,100
1456,"Cabo Melville","950017","dmc",-62.02055,-57.62444,123.0,"Temperatura",,0
1420,"Emiliana - Limarí","AG719","agromet",-30.7122546,-71.3567588,245.0,"Temperatura",19.2,100
1207,"SAN JOSE DE MAIPO RETEN","05704006-8","dga",-33.6361,-70.3531,963.0,"Temperatura",,0
470,"El Huertón liceo agrícola, Los Ángeles","370036","dmc",-37.4564,-72.2578,173.0,"Temperatura",22.37,100
616,"Catemu","AG31","agromet",-32.757777778,-70.942777778,451.0,"Temperatura",22.86,100
259,"Bío Bío ante Junta Pangue","08313001-6","dga",-37.8997,-71.6239,420.0,"Temperatura",,0
411,"Punta Arenas","12586004-4","dga",-53.1233,-70.8772,5.0,"Temperatura",,0
600,"Llayllay","AG30","agromet",-32.903333333,-70.950555556,439.0,"Temperatura",23.36,100
498,"Paillaco","AG133","agromet",-40.096388889,-72.926666667,92.0,"Temperatura",18.8,100
705,"San Vicente TT","AG68","agromet",-34.457777778,-71.050555556,220.0,"Temperatura",25.4,100
1476,"Los Acacios","AG772","agromet",-30.700483,-71.286422,253.0,"Temperatura",19.56,100
824,"Belén","AG390","agromet",-18.468208,-69.523279,3206.0,"Temperatura",15.25,100
439,"Visviri Tenencia","170001","dmc",-17.595,-69.4769,4084.0,"Temperatura",,0
591,"Limache","AG36","agromet",-32.994444444,-71.260666667,96.0,"Temperatura",19.63,100
326,"Río Gol Gol en Puente Nº 2","10322003-3","dga",-40.6603,-72.1772,382.0,"Temperatura",,0
670,"Morandé","AG247","agromet",-33.581388889,-70.716666667,547.0,"Temperatura",,0
